OSM_ID,Street_Name,Latitude,Longitude,Category
44426964,Abafana Place,-29.9412504,30.9470143,English
43910986,Abaphaphi Close,-29.736166,30.9638075,English
44470406,Andrew Zondo Road,-30.0650198,30.8775767,English
43025860,Asigcini Close,-29.8572852,30.9433244,English
44215522,Asijiki Road,-29.969507,30.9048303,English
44099880,Asinamali Avenue,-29.8930293,30.847228,English
43752011,Asiphile Avenue,-29.7813553,30.9110506,English
44461050,Asiphile Lane,-30.0057603,30.8867393,English
44216333,Asisebenze Close,-29.9543708,30.9103736,English
44103458,Asizame Avenue,-29.8729545,30.8526738,English
185126370,B Gumede Street,-30.2658967,29.9341429,English
185126364,BJ Magojo Street,-30.2681161,29.9391035,English
44452066,Baba Nene Avenue,-30.0336646,30.8606125,English
48392990,Babanani Road,-29.5560852,31.1195556,English
438259546,Bakwethu Road,-29.7269511,30.9692937,English
44461014,Baluleka Close,-30.0006392,30.8919383,English
52083939,Bathakathi Street,-27.7801786,30.8284052,English
437313672,Bayede Street,-28.6234501,29.9062472,English
47711038,Bayeza Road,-29.7183956,30.9433928,English
44215516,Bekezela Avenue,-29.9492259,30.8614543,English
44215523,Bekezela Drive,-29.9551308,30.9192797,English
179338330,Bekezela Street,-28.1986273,30.1666961,English
118695462,Bekker Place,-29.59563,30.3916402,English
371324753,Benjane Street,-28.4307705,32.1450446,English
39812425,Biyela Street,-28.7394903,31.8905806,English
43910923,Bonakele Nxumalo Road,-29.745173,30.9697502,English
44103408,Boy Nxumalo Close,-29.872277,30.8670101,English
44215399,Boyi Simelane Avenue,-29.9770627,30.8635444,English
45242245,Boynes Road,-29.9053305,31.0323008,English
43910922,Boza Road,-29.7441521,30.9647747,English
47711993,Buzani Avenue,-29.7103399,30.9674233,English
47711876,Buzisisa Avenue,-29.7097424,30.9672159,English
47711761,Cebisa Avenue,-29.7159374,30.966067,English
124886931,Celukuthula Road,-29.7222838,30.9608207,English
43910749,Ceza Road,-29.7536475,30.9886818,English
706507026,Chakide Close,-29.7347189,30.9462307,English
43911004,Chakide Road,-29.7367959,30.9783073,English
179338283,Chakide Street,-28.201487,30.1599948,English
438008988,Chakijane Close,-29.7329958,30.945761,English
48076971,Chibi Lane,-29.7318703,30.8762749,English
44216236,Cwaka Avenue,-30.0031546,30.8847558,English
43911296,Cweba Road,-29.7424426,30.9997493,English
39739642,Dabula Street,-29.8530771,30.9613267,English
43911220,Dabulamanzi Road,-29.7389332,30.9967652,English
43910973,Dondolo Road,-29.7348597,30.9705746,English
108797404,Dube Road,-29.5665776,30.1786994,English
44214685,Fudu Lane,-29.9513421,30.8584004,English
43025796,Funda Avenue,-29.8621636,30.9498472,English
47710985,Gijima Road,-29.7177098,30.9451237,English
48392969,Gugulethu Avenue,-29.5528222,31.1189245,English
43910527,Gwababa Road,-29.7573232,30.9565133,English
44358796,Idwala Lane,-29.7749505,30.9291009,English
198051908,Igugu Street,-29.1366129,31.3951315,English
44427008,Igwalagwala Street,-29.9346819,30.9328942,English
44461175,Ijuba Road,-30.015565,30.9148012,English
43751893,Imfezi Street,-29.7792302,30.9099025,English
94352123,Impisi Street,-28.5571198,29.8179372,English
198051869,Impumelelo Road,-29.1307786,31.3902931,English
198052867,Impunzi Road,-29.1525223,31.4205067,English
44214527,Imvubu Lane,-29.9586478,30.8627665,English
44214501,Imvubu Street,-29.9511293,30.8868519,English
437283431,Iphini Street,-28.6079836,29.9244958,English
44102610,Ithendele Street,-29.8718986,30.8233863,English
136286374,Izichwe Street,-29.3234492,31.3000481,English
699257594,Izinyane Road,-28.773648,31.8728775,English
44215704,Izinyathi Lane,-29.9899574,30.892519,English
437428699,Izinyoka Road,-28.6267984,29.9348567,English
98639972,Jabula Drive,-29.6005406,30.4200559,English
193114385,Jeqe Road,-29.6342733,30.3327668,English
44214166,Jikeleza Road,-29.9693594,30.8645814,English
44651711,Juba Road,-29.8484556,30.7736144,English
43752381,Kunempisi Avenue,-29.7651078,30.9210628,English
44102882,Kunjalo Street,-29.8767728,30.842486,English
44099350,Kwezi Road,-29.8847286,30.800823,English
44461004,Lekelela Avenue,-30.0008077,30.8920665,English
44214150,Mababaza Road,-29.9737932,30.8858911,English
47712144,Mabasa Road,-29.709773,30.9731344,English
171649690,Mabaso Street,-28.1932034,30.1585852,English
44214149,Mabele Road,-29.9643314,30.8556689,English
850912738,Mabuza Road,-29.6372423,30.3283556,English
43756332,Madondo Road,-29.7994219,30.8947867,English
44214348,Mafukuzela Street,-29.9773519,30.8554278,English
198051853,Mafunda Road,-29.1324201,31.4025287,English
44215346,Mafutha Close,-29.9961693,30.868304,English
136286343,Mafuya Street,-29.3271001,31.2988163,English
437317059,Mageba Street,-28.6342868,29.9090306,English
43911336,Magwaza Road,-29.7356549,30.9838005,English
44214362,Malanda Avenue,-29.9436538,30.8643388,English
47711881,Mandondo Road,-29.7114001,30.9637803,English
44427040,Manqele Road,-29.9391016,30.9317422,English
58516396,Manqoba Lane,-29.7717713,30.8660925,English
44215443,Manqondo Road,-29.97961,30.8552668,English
43911355,Manyosi Road,-29.7368895,30.9993628,English
44215735,Manzamnandi Avenue,-29.9925452,30.8886239,English
436675731,Manzimtoti Road,-29.8616557,30.9465494,English
47711233,Manzini Avenue,-29.7097136,30.9552163,English
44214338,Mapapa Mthiyane Street,-29.9662219,30.9091323,English
47998377,Maphumulo Road,-29.8185293,30.6391023,English
108780011,Maseko Road,-29.5691982,30.1842877,English
44102878,Masithokoze Road,-29.8757268,30.8442168,English
47998585,Mavovo Road,-29.8087756,30.6160769,English
44214541,Mayibuye Road,-29.9623653,30.8561698,English
437741085,Mfundisi Road,-29.7209318,30.9567682,English
44214674,Mgabadeli Road,-29.9801847,30.8625289,English
1136287344,Mgaga Road,-29.9656172,30.8540717,English
44070044,Mgqumeni Road,-30.0578828,30.807973,English
850833014,Mnqayi Road,-29.6560154,30.3484064,English
43911302,Mnyamana Road,-29.7343493,30.991326,English
43910917,Mnyezane Road,-29.7440249,30.9631299,English
43999814,Mpete Road,-29.7484089,30.6965217,English
44215309,Mpevu Road,-29.9679581,30.8528281,English
52086603,Mphelandaba Street,-27.7802514,30.8197758,English
44099684,Mphephethwa Place,-29.8893897,30.8281594,English
47711185,Mpilo Close,-29.7129137,30.953462,English
44215312,Mpisi Avenue,-29.9642613,30.8591315,English
47711059,Mpophoma Road,-29.712591,30.9501094,English
44651731,Mpumelelo Street,-29.841968,30.7730649,English
953539026,Msebeni Street,-28.8919842,31.4950679,English
43982306,Msobo Place,-30.0049921,30.8374288,English
47998574,Mthethwa Road,-29.8138363,30.6131116,English
437741051,Mthiyane Avenue,-29.7260977,30.9441111,English
116634480,Mthunzi Street,-29.4921237,30.229314,English
437741077,Mtoti Street,-29.7219484,30.955361,English
47998702,Mvelase Road,-29.8244357,30.6348337,English
706488657,Mvoti Road,-29.7547875,30.9431474,English
43910956,Mvubu Road,-29.7411112,30.9753634,English
47711227,Mvukuzane Close,-29.7130591,30.9573591,English
43025962,Mwelase Road,-29.8509766,30.949819,English
44358776,Mxamalala Street,-29.7761281,30.9303786,English
44651743,Mzabalazo Street,-29.8605633,30.7671968,English
45880396,Mzala Place,-29.7314758,31.0139091,English
814975922,Mzilikazi Street,-28.2746947,31.4417491,English
52086631,Mzimela Street,-27.7802087,30.8234585,English
44214937,Mzwandile Close,-29.9910262,30.8831923,English
863501878,Ncome Street,-28.8765984,31.8967009,English
193108146,Ndaba Road,-29.6359632,30.329931,English
43982331,Ndabezitha Road,-29.9908004,30.8250028,English
43911357,Ndabuko Road,-29.7386835,30.9970444,English
94352168,Njabulo Street,-28.5784449,29.8291962,English
44103556,Njomane Street,-29.8484255,30.8556047,English
510260469,Nomponjwana Road,-29.6533888,30.3055333,English
186624123,Nondaba Street,-28.8922954,31.4950679,English
43910709,Nquthu Road,-29.760307,30.9848861,English
438367695,Nxala Road,-29.6635904,30.3448411,English
98639950,Nxele Street,-29.600737,30.4222235,English
47712156,Nxumalo Road,-29.7123329,30.9714909,English
44214638,Nyamazane Street,-29.947745,30.8642132,English
437283426,Nyathi Street,-28.6033447,29.92504,English
125138528,Nyezane Street,-28.8754951,31.8994773,English
812767543,Nyokana Road,-30.5467123,29.4409577,English
45096407,Nyonikayiphumuli Road,-30.1722116,30.7628094,English
44215280,Nyosi Lane,-29.9646395,30.8613163,English
52465487,Nzima Street,-27.9903516,30.7214136,English
43911328,Nzimande Road,-29.7389495,30.98456,English
52086581,Nzuza Street,-27.7860183,30.8225111,English
48206017,Ogodweni Road,-29.6742602,30.9147184,English
437741048,Onogwaja Avenue,-29.7237028,30.9418904,English
58516452,Osizweni Lane,-29.7646029,30.8831135,English
47998642,Phakathwayo Road,-29.8014013,30.6225546,English
198051920,Phaphama Road,-29.1303215,31.3883119,English
44069769,Phenduka Drive,-30.0598849,30.825266,English
45096509,Phephetha Road,-30.171776,30.7680763,English
47711107,Pheza Road,-29.7130249,30.9460909,English
47710909,Phezulu Road,-29.7076202,30.939968,English
44214235,Phila Ndwandwe Road,-29.9633838,30.8796811,English
43886971,Phumelela Close,-29.7654508,30.9896335,English
44102602,Phumphele Street,-29.8734355,30.8315269,English
39739616,Phumula Street,-29.856158,30.9592273,English
47710934,Qedusizi Road,-29.7068412,30.9418425,English
198038355,Qhakaza Street,-28.8725876,31.9152603,English
438259538,Qhikiza Road,-29.7506861,30.9327479,English
437328016,Qholwane Road,-28.6324697,29.8827593,English
44214303,Qhude Road,-29.9627154,30.8583825,English
437283417,Qina Street,-28.6057855,29.9284132,English
44099887,Qiniseka Close,-29.8893387,30.8467946,English
94343552,Qwabe Street,-28.7388476,29.8411269,English
44099727,S. Gwala Street,-29.8841282,30.8196444,English
44214304,S. Mchunu Drive,-29.9487992,30.9112642,English
47711251,Savumelana Close,-29.712078,30.9526497,English
44214216,Sbonakaliso Mchunu Street,-29.9690527,30.8982271,English
44358808,Sboniso Madondo Street,-29.7744637,30.9307504,English
47710951,Sekunjalo Road,-29.7178602,30.9607366,English
94333081,Sekusile Street,-28.5814271,29.826527,English
43982481,Sfiso Buthelezi Street,-29.9948082,30.8206049,English
44452135,Sfiso Xaba Lane,-30.0221775,30.8645835,English
44215716,Sgananda Avenue,-29.9874901,30.8793005,English
47998548,Sibiya Road,-29.8090998,30.6038915,English
437725040,Sicelo Road,-29.7176949,30.9456888,English
437283434,Sicephu Street,-28.6074738,29.9211459,English
43911363,Sigananda Road,-29.7354514,30.9943929,English
438051860,Sigodo Road,-29.7492428,30.9411116,English
44215143,Sigonyela Road,-29.9638454,30.8539928,English
44215091,Sigujana Road,-29.9851409,30.8689803,English
45880294,Simunye Avenue,-29.7420634,31.0166269,English
124891278,Sinamuva Drive,-29.7150151,30.952749,English
44215131,Sinqandu Road,-29.9690067,30.8502583,English
198038328,Siqophamithi Street,-28.8807909,31.9007606,English
43911227,Sivumelwane Road,-29.7474285,30.9946192,English
44215101,Siyabusa Drive,-29.9627279,30.9195477,English
39739639,Siyanda Road,-29.8552281,30.9604627,English
47711149,Siyanqoba Road,-29.7106111,30.9416462,English
44102932,Siyathuthuka Road,-29.8670257,30.8452753,English
47710998,Siyavuma Road,-29.7180509,30.9588623,English
47711109,Siyazama Road,-29.7133961,30.9456566,English
44103541,Sizanani Street,-29.8641597,30.8611207,English
43982890,Sizanendaba Road,-30.0030721,30.8340653,English
438266524,Sizimele Lane,-29.7234917,30.9660979,English
1138473756,Sizithulele Lane,-29.781787,30.8979166,English
44215116,Slindile Nzama Drive,-29.9611624,30.926857,English
438371745,Smilo Road,-29.6508027,30.3640684,English
437314956,Sompisi Street,-28.6212001,29.9337049,English
44215876,Sqopha Avenue,-29.9585859,30.8633416,English
43982884,Sqothu Street,-29.9969761,30.8252105,English
44216867,Sukuma Road,-29.9743816,30.8733915,English
44216331,Thandolwethu Close,-29.9546609,30.9103434,English
48392991,Thandukwazi Road,-29.5569757,31.1203329,English
198038457,Thokozani Street,-28.8672959,31.9084231,English
43751927,Tholakele Avenue,-29.7812955,30.8988084,English
772117243,Tholimpilo Road,-28.7726013,31.8618382,English
44215948,Tholulwazi Close,-29.9579943,30.8963476,English
857153066,Thula Hadebe Close,-29.8650569,30.9520098,English
45446065,Thulani Mncwabe Close,-29.6671998,31.0658079,English
47711069,Thulani Road,-29.715596,30.9448914,English
43982879,Thulasizwe Street,-29.9957734,30.8270156,English
47711354,Thumamina Way,-29.723021,30.9685699,English
52086651,Thusi Street,-27.7764694,30.8251562,English
803227756,Thusini Road,-29.7533747,30.935485,English
43887058,Thuthukani Street,-29.7618044,30.9946988,English
126136509,Thwala Road,-29.6555293,30.3389245,English
44216858,Velakuqala Drive,-29.9616702,30.9175816,English
44103512,Velaphi Street,-29.8673646,30.8586483,English
44216861,Veni Yeni Road,-29.9593663,30.9158489,English
43672350,Vezi Street,-29.9018715,30.8765042,English
94333113,Vilakazi Street,-28.5749114,29.8286212,English
47710960,Vukani Road,-29.7180525,30.9445682,English
43982865,Vumandaba Street,-29.9960361,30.8273444,English
47711102,Vumelani Road,-29.7170813,30.9474373,English
44461795,Vumile Close,-30.0071664,30.8864355,English
43751990,Vuselela Drive,-29.7758074,30.90169,English
43982479,Vusi Magubane Way,-29.9951498,30.8206977,English
43982476,Vusi Manzi Street,-29.993777,30.8169649,English
44370640,Vusi Mzimela Road,-29.8488759,30.978839,English
43910684,Vuthwane Road,-29.7549927,30.9727402,English
44103412,Xaba Road,-29.8772632,30.8525422,English
438303322,Xalani Road,-29.7589652,30.9483053,English
43982800,Xamu Road,-30.0017134,30.8263126,English
52086645,Xhakaza Street,-27.7774849,30.820549,English
44214047,Xolani Memela Road,-29.9548857,30.9154113,English
43982485,Xolani Mthethewa Street,-29.994942,30.817792,English
43911235,Xolani Road,-29.7454606,30.9931246,English
44102889,Xolisa Close,-29.8754998,30.8471612,English
44214005,Xolo Avenue,-29.9668541,30.8847747,English
44214046,Xulu Road,-29.9623902,30.8604692,English
44427092,Yeni Road,-29.9455094,30.9455266,English
43752141,Yigwababa Avenue,-29.7680619,30.9160843,English
47710844,Zabalaza Road,-29.7102538,30.9347298,English
706498727,Zakwethu Road,-29.7541466,30.9483892,English
39739619,Zama Zama Street,-29.8565046,30.9588483,English
179338297,Zamani Street,-28.2020981,30.1617899,English
186628955,Zamimpilo Road,-28.8817127,31.4821819,English
43886912,Zenzele Road,-29.7673494,30.9904507,English
803233875,Zezwe Road,-29.7474595,30.9305228,English
803233877,Zibalo Road,-29.7470797,30.9314895,English
47998657,Zibuse Road,-29.8195688,30.6520358,English
47712511,Zicelele Nyawuza Way,-29.7017448,30.9674063,English
198035148,Zigabise Road,-28.7692433,31.8655848,English
44215410,Zigqaje Road,-29.9634047,30.8676814,English
44530607,Ziko Road,-30.0326572,30.8761506,English
44102150,Zilweleni Road,-29.8707063,30.7870488,English
437725036,Zimnene Road,-29.7226118,30.9482382,English
117083367,Zimtoti Road,-28.7839157,31.8559398,English
47710691,Zinyane Road,-29.7129407,30.9353758,English
438019317,Ziphelele Road,-29.7502999,30.9305276,English
437741074,Ziphethe Street,-29.7238567,30.9468341,English
44103634,Ziqubu Street,-29.8469153,30.8600409,English
44214250,Zithulelemama Road,-29.9650846,30.9079688,English
44099827,Zodwa Madondo Street,-29.8874241,30.8327808,English
43982470,Zolani Zulu Street,-29.9957443,30.818591,English
1358665172,Zondi Road,-29.8087566,30.6142141,English
43910787,Zulu Road,-29.7364774,30.9820366,English
804292993,Zululami Drive,-29.4751663,31.2542348,English
94333321,Zuma Street,-28.5691754,29.8288847,English
863744470,Zwakala Road,-28.7749883,31.8628232,English
43887170,Zwele Street,-29.7420485,31.0184566,English
44099281,Zwelethu Road,-29.8853113,30.8057003,English
44214252,Zwelibanzi Road,-29.9515989,30.8640811,English
44214208,Zwelinjani Sibiya Road,-29.9506224,30.8953362,English
442818354,Zwide Street,-28.2781397,31.4429461,English
44069831,Amabutho Close,-30.0662231,30.8344388,Likely_IsiZulu
437741090,Amachwane Avenue,-29.7295352,30.9517835,Likely_IsiZulu
43910844,Amadada Crescent,-29.7354283,30.9600283,Likely_IsiZulu
437741087,Amagwababa Avenue,-29.7277829,30.9514621,Likely_IsiZulu
44215045,Amahubo Lane,-29.9588887,30.8914849,Likely_IsiZulu
94063056,Amajuba Street,-27.7630458,29.9297523,Likely_IsiZulu
43910843,Amakhono Close,-29.7357348,30.9568162,Likely_IsiZulu
44215389,Amalahle Lane,-29.9905895,30.8718215,Likely_IsiZulu
44216181,Amalombo Lane,-30.0034961,30.8829367,Likely_IsiZulu
43910746,Amandawe Road,-29.7545087,30.9865808,Likely_IsiZulu
47998513,Amandla Road,-29.8177698,30.6266055,Likely_IsiZulu
437988960,Amanqe Avenue,-29.7213408,30.9384942,Likely_IsiZulu
43910443,Amanzimnyama Road,-29.7511374,30.9805529,Likely_IsiZulu
43910473,Amanzimtoti Road,-29.7524235,30.9777999,Likely_IsiZulu
45445629,Amaqhawe Street,-29.6641183,31.0695131,Likely_IsiZulu
390436065,Amasethole Street,-28.8567561,31.8398434,Likely_IsiZulu
198038342,Amashwidi Street,-28.8651859,31.9197036,Likely_IsiZulu
43910444,Amatikulu Road,-29.7516792,30.980721,Likely_IsiZulu
124907253,Amaviyo Lane,-29.7277099,30.9596551,Likely_IsiZulu
437741046,Amavondwe Close,-29.724624,30.9409343,Likely_IsiZulu
44216004,Amawele Lane,-29.9624072,30.8983955,Likely_IsiZulu
706477403,Amawisa Avenue,-29.7435521,30.9444685,Likely_IsiZulu
438008989,Amawundlu Avenue,-29.7342985,30.9449288,Likely_IsiZulu
210738936,Eboyeni Crescent,-28.7851132,31.8660714,Likely_IsiZulu
43752416,Ebuhleni Lane,-29.7638986,30.9170547,Likely_IsiZulu
44424494,Ebumnandini Lane,-29.9640734,30.8423647,Likely_IsiZulu
44216108,Echwebeni Avenue,-30.0033191,30.8798677,Likely_IsiZulu
43752345,Edamini Avenue,-29.7648464,30.9275878,Likely_IsiZulu
44099365,Edwaleni Road,-29.8912244,30.7980379,Likely_IsiZulu
43910826,Egugwini Street,-29.7398731,30.9550097,Likely_IsiZulu
205370302,Ekamanzi Road,-29.3250198,30.6256577,Likely_IsiZulu
44004207,Ekuhlanganeni Drive,-29.547685,31.1499823,Likely_IsiZulu
98639948,Ekukhanyeni Street,-29.5985122,30.4179313,Likely_IsiZulu
44215336,Ekuphileni Road,-29.9693441,30.8820751,Likely_IsiZulu
437319410,Ekuphumuleni Street,-28.6321208,29.9133844,Likely_IsiZulu
44099230,Ekuthuleni Road,-29.8827314,30.794218,Likely_IsiZulu
117083388,Ekwathabeni Street,-28.7731648,31.8566843,Likely_IsiZulu
858944028,Ekwazini Street,-30.0735709,30.8324855,Likely_IsiZulu
105718678,Elangeni Road,-29.7775067,30.7654682,Likely_IsiZulu
44215534,Emafeyizini Drive,-29.9954272,30.8683878,Likely_IsiZulu
44103468,Emafini Close,-29.8771232,30.8565269,Likely_IsiZulu
863733552,Emandleni Road,-28.7769235,31.852309,Likely_IsiZulu
44651709,Emandleni Street,-29.8454806,30.7686729,Likely_IsiZulu
125865389,Emangweni Highway,-28.7634264,31.8615153,Likely_IsiZulu
87453481,Emapaleni Road,-29.4897707,29.5699489,Likely_IsiZulu
44215491,Emaromeni Lane,-29.996874,30.8834496,Likely_IsiZulu
48393029,Emashini Road,-29.5489655,31.1223824,Likely_IsiZulu
44216509,Emasisweni Avenue,-29.9684984,30.8746834,Likely_IsiZulu
45446364,Emathafeni Close,-29.6578511,31.0736717,Likely_IsiZulu
43751847,Emaweni Street,-29.7783656,30.9151023,Likely_IsiZulu
857155490,Embalenhle Road,-29.8673838,30.9523946,Likely_IsiZulu
48392986,Embelebeleni Road,-29.560027,31.122013,Likely_IsiZulu
47998355,Embuthweni Road,-29.8259264,30.6167023,Likely_IsiZulu
44215363,Emdonini Street,-29.9548225,30.8749851,Likely_IsiZulu
48393037,Emfuleni Road,-29.54603,31.1206131,Likely_IsiZulu
58516263,Emhosheni Lane,-29.771394,30.8700293,Likely_IsiZulu
39739612,Emoyeni Street,-29.8579205,30.9595569,Likely_IsiZulu
48392999,Emphelandaba Road,-29.5568902,31.1227638,Likely_IsiZulu
47998523,Empohlweni Road,-29.8113461,30.6081688,Likely_IsiZulu
44216421,Emthethweni Road,-29.968782,30.8777248,Likely_IsiZulu
442818345,Emthonjaneni Street,-28.2786538,31.4413086,Likely_IsiZulu
198038396,Emthonjeni Street,-28.8675498,31.9124931,Likely_IsiZulu
148650882,Emtunzi Drive,-30.8418513,30.3763791,Likely_IsiZulu
43752123,Emvuleni Close,-29.7771319,30.9126863,Likely_IsiZulu
198035173,Enkanyisweni Road,-28.7720697,31.8656497,Likely_IsiZulu
195415178,Enkongolwana Road,-27.6452836,32.2485454,Likely_IsiZulu
44069975,Enqoleni Close,-30.0630629,30.8200085,Likely_IsiZulu
43025959,Ensimbini Avenue,-29.8519354,30.9490112,Likely_IsiZulu
42897477,Entabeni Road,-29.8372927,30.8766869,Likely_IsiZulu
458773802,Entokozweni Street,-28.6082268,29.9315248,Likely_IsiZulu
44470336,Entombeni Drive,-30.0562994,30.8662744,Likely_IsiZulu
43198992,Esenembe Road,-29.4909261,31.1820515,Likely_IsiZulu
43752072,Eshayamoya Close,-29.7756533,30.911083,Likely_IsiZulu
863480350,Eshowe Road,-29.0254703,31.5852072,Likely_IsiZulu
137154070,Esigodini Road,-29.6466115,30.2788232,Likely_IsiZulu
47998552,Esihonqeni Road,-29.8094515,30.6045115,Likely_IsiZulu
95096119,Esiklebheni Street,-28.2890946,31.4106024,Likely_IsiZulu
44214696,Esiphethwini Road,-29.9720921,30.876358,Likely_IsiZulu
44214712,Esipokini Road,-29.9508649,30.8572292,Likely_IsiZulu
39739622,Esithebeni Street,-29.8556911,30.9592044,Likely_IsiZulu
44070040,Esiweni Close,-30.0593023,30.812064,Likely_IsiZulu
48057993,Eskebheni Road,-29.7161283,30.8681569,Likely_IsiZulu
48582934,Eskotene Avenue,-29.7685348,30.8019217,Likely_IsiZulu
43887047,Ethembeni Street,-29.7594717,30.9960843,Likely_IsiZulu
171649646,Ethuleni Street,-28.1976492,30.1606161,Likely_IsiZulu
43752425,Etsheni Road,-29.7631211,30.9192953,Likely_IsiZulu
44214226,Ezalukazini Avenue,-29.9568718,30.9022575,Likely_IsiZulu
44530378,Ezimangweni Road,-30.0437558,30.8701998,Likely_IsiZulu
44215106,Ezimbalini Lane,-29.9472535,30.8921864,Likely_IsiZulu
44214708,Ezimpukwini Avenue,-29.9676661,30.8545581,Likely_IsiZulu
117083356,Ezingadini Crescent,-28.7742956,31.8561512,Likely_IsiZulu
706488030,Ezintombini Road,-29.7276871,30.9692521,Likely_IsiZulu
44215752,Ezipokini Avenue,-29.9919714,30.8925074,Likely_IsiZulu
43910929,Imigexo Close,-29.744706,30.9692174,Likely_IsiZulu
44214511,Inala Street,-29.9545827,30.8695721,Likely_IsiZulu
19569546,Inanda Road,-29.7358156,30.8575546,Likely_IsiZulu
706507025,Incotho Avenue,-29.7319837,30.9506542,Likely_IsiZulu
44099906,Incwincwi Lane,-29.8844746,30.8403154,Likely_IsiZulu
207479088,Indaba Road,-31.0522813,30.22703,Likely_IsiZulu
44460992,Indabuko Close,-30.0079827,30.8858556,Likely_IsiZulu
855874694,Indawo Yami Lane,-29.7257124,30.9591856,Likely_IsiZulu
198051921,Indiyane Road,-29.1294959,31.402822,Likely_IsiZulu
417225212,Indlanzi Road,-29.4391421,31.2171414,Likely_IsiZulu
125917652,Indlondlo Street,-28.3409073,31.4140876,Likely_IsiZulu
125138235,Indlovu Street,-28.8816328,31.8911802,Likely_IsiZulu
45445994,Indlovukazi Close,-29.6707464,31.0640927,Likely_IsiZulu
417635703,Indlulamithi Road,-29.2839162,31.3607021,Likely_IsiZulu
44069753,Indoni Avenue,-30.0601077,30.8205637,Likely_IsiZulu
45446088,Indoni Yamanzi Close,-29.6670064,31.0648754,Likely_IsiZulu
458713492,Indonsa Road,-28.6234482,29.9244281,Likely_IsiZulu
458713490,Indonsakusa Road,-28.6225567,29.9239129,Likely_IsiZulu
437319414,Indonya Street,-28.6296945,29.9126692,Likely_IsiZulu
171642187,Indumeni Street,-28.1655814,30.245374,Likely_IsiZulu
43752420,Indumiso Lane,-29.76367,30.9195711,Likely_IsiZulu
44070017,Induna Close,-30.0635768,30.8146669,Likely_IsiZulu
44214382,Induna Ndlela Kasompisi Street,-29.9460999,30.8952498,Likely_IsiZulu
437326839,Indwa Road,-28.6308295,29.8859276,Likely_IsiZulu
44099694,Indwazela Road,-29.8931717,30.845657,Likely_IsiZulu
44214598,Indwe Avenue,-29.9679488,30.8565738,Likely_IsiZulu
48094060,Ingagane Road,-29.735749,30.5918659,Likely_IsiZulu
44214604,Inganono Avenue,-29.9575196,30.8681378,Likely_IsiZulu
754942905,Ingcebo Drive,-29.7377506,30.9548558,Likely_IsiZulu
44358803,Ingcebo Lane,-29.7741609,30.9281244,Likely_IsiZulu
47710967,Ingcino Avenue,-29.7180685,30.9684577,Likely_IsiZulu
48572982,Ingcuce Road,-29.8494291,31.0178572,Likely_IsiZulu
44099688,Ingede Avenue,-29.8937644,30.8483509,Likely_IsiZulu
44007218,Ingede Road,-30.0175557,30.8994019,Likely_IsiZulu
198038361,Ingede Street,-28.8736217,31.9162238,Likely_IsiZulu
44214781,Ingilosi Close,-29.9906227,30.8811597,Likely_IsiZulu
43911247,Ingobamakhosi Road,-29.7463445,30.9827712,Likely_IsiZulu
94101370,Ingogo Avenue,-27.7226049,29.9721993,Likely_IsiZulu
43910496,Ingome Road,-29.7547355,30.9801712,Likely_IsiZulu
44103436,Ingongoni Lane,-29.8809891,30.850047,Likely_IsiZulu
437279977,Ingonyama Street,-28.6091384,29.9250138,Likely_IsiZulu
44460986,Ingovuma Lane,-30.0061555,30.8848858,Likely_IsiZulu
45446053,Ingqalabutho Close,-29.6632755,31.0626931,Likely_IsiZulu
198038380,Ingqungqulu Street,-28.8699681,31.9076884,Likely_IsiZulu
45446265,Ingqwele Close,-29.6627344,31.0628102,Likely_IsiZulu
48205929,Ingudla Road,-29.6847176,30.8873339,Likely_IsiZulu
437988976,Ingududu Avenue,-29.7218467,30.9271084,Likely_IsiZulu
108797417,Ingulule Street,-29.5571522,30.1786306,Likely_IsiZulu
108797492,Ingungumbane Road,-29.5584282,30.1779266,Likely_IsiZulu
44214540,Ingwavuma Road,-29.9800726,30.8875373,Likely_IsiZulu
125138231,Ingwe Street,-28.8846551,31.888846,Likely_IsiZulu
128892130,Ingwegwe Crescent,-28.3078041,31.4143562,Likely_IsiZulu
124540870,Ingwenya Street,-28.6678823,32.0232822,Likely_IsiZulu
417635668,Inhlaba Road,-29.2833843,31.3572698,Likely_IsiZulu
856264544,Inhlabazulu Street,-28.6201169,29.9153252,Likely_IsiZulu
47711357,Inhlalisuthi Way,-29.719861,30.969659,Likely_IsiZulu
198051824,Inhlamva Road,-29.1293749,31.3956354,Likely_IsiZulu
47711855,Inhlanzi Avenue,-29.7128867,30.9688772,Likely_IsiZulu
198038354,Inhlava Street,-28.8631943,31.9155302,Likely_IsiZulu
437741054,Inhlendla Avenue,-29.7273089,30.9462445,Likely_IsiZulu
417211626,Inhlenethwa Road,-29.4470014,31.2048955,Likely_IsiZulu
44103447,Inhloso Lane,-29.8796719,30.8581737,Likely_IsiZulu
94354899,Inhlwathi Street,-28.5585397,29.8218613,Likely_IsiZulu
437747904,Injabulo Close,-29.7264386,30.9523306,Likely_IsiZulu
44358799,Injongo Lane,-29.7749894,30.9281743,Likely_IsiZulu
58516138,Inkala Avenue,-29.7907542,30.837683,Likely_IsiZulu
442813664,Inkalakuthaba Street,-28.2838075,31.4275772,Likely_IsiZulu
863508939,Inkankane Street,-28.8719821,31.9189496,Likely_IsiZulu
167315809,Inkanyamba Street,-28.7712691,31.8790365,Likely_IsiZulu
187178988,Inkanyezi Street,-28.8902167,31.5004228,Likely_IsiZulu
45445805,Inkanyezi Yokusa Drive,-29.6684827,31.0649891,Likely_IsiZulu
167316317,Inkawu Street,-28.7764651,31.8778188,Likely_IsiZulu
44214600,Inkentshane Street,-29.9442851,30.8784577,Likely_IsiZulu
437283429,Inkezo Street,-28.6057589,29.9229803,Likely_IsiZulu
47711017,Inkinga Way,-29.7186313,30.9401286,Likely_IsiZulu
438259525,Inkomfe Avenue,-29.7370159,30.945334,Likely_IsiZulu
125917649,Inkone Crescent,-28.3379117,31.4150086,Likely_IsiZulu
44102871,Inkonjane Road,-29.8746973,30.8473524,Likely_IsiZulu
538610501,Inkonjani Street,-28.5302324,29.7770944,Likely_IsiZulu
58516112,Inkonka Road,-29.7964136,30.8451971,Likely_IsiZulu
108797572,Inkonkoni Road,-29.5554833,30.1783456,Likely_IsiZulu
125138228,Inkonkoni Street,-28.8803383,31.8912044,Likely_IsiZulu
47850956,Inkosi Albert Luthuli Freeway,-29.8973113,30.982038,Likely_IsiZulu
194682776,Inkosi Albert Luthuli Street,-27.7544617,30.0372641,Likely_IsiZulu
43886885,Inkosi Mzonjani Close,-29.7540657,31.0032722,Likely_IsiZulu
186623845,Inkosi Ndwandwe Street,-28.8895821,31.4941918,Likely_IsiZulu
44102890,Inkotha Road,-29.8757901,30.8464181,Likely_IsiZulu
167316342,Inkukhu Crescent,-28.7770697,31.8783772,Likely_IsiZulu
632429048,Inkulisa Street,-29.4419037,30.1008427,Likely_IsiZulu
45445644,Inkululeko Drive,-29.6628314,31.0689957,Likely_IsiZulu
47712274,Inkululeko Yabantu Way,-29.6999682,30.9525871,Likely_IsiZulu
45446092,Inkunzi Close,-29.6665993,31.0674325,Likely_IsiZulu
44099877,Inkwazi Close,-29.8902995,30.8406054,Likely_IsiZulu
45446048,Inqanawe Close,-29.6641515,31.0600152,Likely_IsiZulu
458713500,Inqina Street,-28.6194577,29.9190767,Likely_IsiZulu
437283915,Inqolobane Street,-28.6089818,29.9217739,Likely_IsiZulu
58516049,Insala Road,-29.791003,30.8511869,Likely_IsiZulu
437741049,Insasa Avenue,-29.7253619,30.9422167,Likely_IsiZulu
124540868,Insele Street,-28.6705331,32.0210722,Likely_IsiZulu
194678280,Insephe Street,-27.7658726,30.0109175,Likely_IsiZulu
198038386,Insimangwe Street,-28.8912819,31.8827668,Likely_IsiZulu
124540865,Insimba Street,-28.6710155,32.0192647,Likely_IsiZulu
198038394,Insingizi Street,-28.8721038,31.9186464,Likely_IsiZulu
44103429,Insingizi Way,-29.8794934,30.8537211,Likely_IsiZulu
43886981,Insizwa Lane,-29.7635412,30.9900593,Likely_IsiZulu
458713468,Insizwa Street,-28.6211522,29.9159707,Likely_IsiZulu
44102628,Insizwakazi Road,-29.879443,30.8230959,Likely_IsiZulu
198038434,Insomi Street,-28.8761438,31.9106644,Likely_IsiZulu
458713505,Insulunga Road,-28.6192388,29.9236273,Likely_IsiZulu
44069834,Insundu Avenue,-30.0674148,30.8350842,Likely_IsiZulu
43910934,Insuze Road,-29.749355,30.9766298,Likely_IsiZulu
458713478,Intelezi Street,-28.6264288,29.9042923,Likely_IsiZulu
44214566,Intengalali Road,-29.970049,30.9066143,Likely_IsiZulu
58516395,Intengu Avenue,-29.7923757,30.8377694,Likely_IsiZulu
125138236,Intibane Street,-28.8823588,31.8918591,Likely_IsiZulu
44099229,Intiyane Street,-29.8815037,30.8222176,Likely_IsiZulu
43910778,Intlansi Road,-29.746027,30.9814978,Likely_IsiZulu
43752095,Intokomalo Road,-29.7733364,30.9086074,Likely_IsiZulu
863507827,Intokozo Street,-28.8733755,31.9138003,Likely_IsiZulu
438303323,Intungwa Avenue,-29.737677,30.9537199,Likely_IsiZulu
44102606,Intuthuko Road,-29.8720642,30.8397933,Likely_IsiZulu
43910823,Intuthwane Close,-29.7450493,30.9492076,Likely_IsiZulu
43910668,Intuzuma Road,-29.7577325,30.9779896,Likely_IsiZulu
43752255,Intwenhle Lane,-29.7694168,30.9110868,Likely_IsiZulu
44461170,Inwabi Road,-29.9765736,30.9188971,Likely_IsiZulu
108777477,Inxala Street,-29.5661552,30.1755652,Likely_IsiZulu
58516299,Inyala Road,-29.7947935,30.8170885,Likely_IsiZulu
45445656,Inyanda Yobuciko Road,-29.6633061,31.0633697,Likely_IsiZulu
44102895,Inyathi Road,-29.8750657,30.8459,Likely_IsiZulu
209502143,Inyengelezi Street,-28.6631109,32.0200603,Likely_IsiZulu
44099803,Inyoni Lane,-29.8895787,30.8356717,Likely_IsiZulu
45095126,Inyosi Street,-29.7958051,30.9584392,Likely_IsiZulu
125917688,Isibaluli Street,-28.3400369,31.4129554,Likely_IsiZulu
45445654,Isibani Sesizwe Road,-29.6633468,31.0645519,Likely_IsiZulu
198038422,Isibhubhu Street,-28.8691132,31.9256174,Likely_IsiZulu
198051882,Isibuko Road,-29.1314349,31.3988504,Likely_IsiZulu
44214584,Isidingo Road,-29.9528906,30.8622867,Likely_IsiZulu
43910858,Isigege Road,-29.7483615,30.9698354,Likely_IsiZulu
43910453,Isihlabelelo Road,-29.7512205,30.99101,Likely_IsiZulu
45880404,Isihlahla Road,-29.7372643,31.0231958,Likely_IsiZulu
45446018,Isihlangu Road,-29.6676923,31.0639622,Likely_IsiZulu
209502144,Isihlangwana Street,-28.6596126,32.0206699,Likely_IsiZulu
458773777,Isihleza Street,-28.6220541,29.913049,Likely_IsiZulu
47711995,Isihlungu Lane,-29.7118765,30.9689542,Likely_IsiZulu
43911009,Isijula Road,-29.7341865,30.9714151,Likely_IsiZulu
43025927,Isikhalo Road,-29.8539808,30.946478,Likely_IsiZulu
47711608,Isikhonde Lane,-29.7133616,30.9661152,Likely_IsiZulu
194678289,Isikhova Street,-27.7659273,30.0094108,Likely_IsiZulu
108777480,Isilo Road,-29.5626901,30.1751609,Likely_IsiZulu
437283916,Isilulu Street,-28.609984,29.9217064,Likely_IsiZulu
459464904,Isimela Street,-28.5607914,29.8248404,Likely_IsiZulu
43911252,Isinaka Road,-29.7467896,30.9909812,Likely_IsiZulu
44214580,Isinandi Road,-29.9770194,30.8850478,Likely_IsiZulu
458773808,Isingazi Stree,-28.6049453,29.9206142,Likely_IsiZulu
458713493,Isiphambano Road,-28.6240218,29.9244164,Likely_IsiZulu
44214050,Isiphambano Walk,-29.9860995,30.8747616,Likely_IsiZulu
198038405,Isiphikele Street,-28.8723079,31.9081205,Likely_IsiZulu
43910484,Isipingo Road,-29.7560129,30.979475,Likely_IsiZulu
45446366,Isiqalo Road,-29.6581171,31.0757053,Likely_IsiZulu
437988902,Isiqophamithi Close,-29.7280794,30.9384277,Likely_IsiZulu
45446254,Isithebe Street,-29.6602531,31.0672378,Likely_IsiZulu
438051834,Isithombothi Road,-29.7451654,30.9440216,Likely_IsiZulu
47711866,Isithupha Avenue,-29.7115891,30.9644767,Likely_IsiZulu
45446397,Isitswebhu Close,-29.659597,31.0719921,Likely_IsiZulu
437283920,Isivovo Street,-28.6071737,29.9280454,Likely_IsiZulu
438259569,Isivunguvungu Lane,-29.7245438,30.9628328,Likely_IsiZulu
44102883,Isivuno Road,-29.8760119,30.8434325,Likely_IsiZulu
44100128,Isizinda Road,-29.8680379,30.850753,Likely_IsiZulu
44214158,Kwadokotela Drive,-29.9513919,30.9192308,Likely_IsiZulu
48393022,Kwadukuza Road,-29.5506116,31.1221807,Likely_IsiZulu
94332120,Kwagga Street,-28.5379999,29.7683466,Likely_IsiZulu
771629844,Kwagudlucingo,-27.7535294,30.179483,Likely_IsiZulu
45880179,Kwamashu Highway,-29.6975796,30.9342667,Likely_IsiZulu
118873884,Kwamevana Street,-29.4931972,30.2278584,Likely_IsiZulu
43886967,Ubambiswano Lane,-29.7655232,30.9865699,Likely_IsiZulu
125138225,Ubhejane Street,-28.8860738,31.8881748,Likely_IsiZulu
108777459,Uchakide Street,-29.5664021,30.1750185,Likely_IsiZulu
442813667,Ucijimpi Crescent,-28.2931872,31.4312128,Likely_IsiZulu
198051901,Ucilo Road,-29.1316555,31.3923856,Likely_IsiZulu
43910868,Udakwakusutha Road,-29.744949,30.9784341,Likely_IsiZulu
44216242,Udengezi Lane,-30.0006572,30.884237,Likely_IsiZulu
43911268,Ududu Road,-29.7447524,30.9845813,Likely_IsiZulu
1242779150,Udududu Street,-28.3338993,31.4144901,Likely_IsiZulu
442813670,Udukwa Street,-28.2903812,31.4324517,Likely_IsiZulu
417736773,Udumo Road,-29.1238831,31.3928791,Likely_IsiZulu
43910941,Udwendwe Road,-29.7478177,30.9702791,Likely_IsiZulu
43911267,Ufalaza Road,-29.7455779,30.9820039,Likely_IsiZulu
442813665,Ufalaza Street,-28.2832365,31.428056,Likely_IsiZulu
43910861,Ufelaphakathi Road,-29.7448967,30.9809202,Likely_IsiZulu
167316354,Ufezela Street,-28.7747358,31.8772451,Likely_IsiZulu
194678272,Ufudu Street,-27.7639507,30.0133937,Likely_IsiZulu
44427143,Uhebe Street,-29.9357459,30.9328628,Likely_IsiZulu
198038402,Uhlunguhlungu Street,-28.8695283,31.9107808,Likely_IsiZulu
171649689,Ukhahlamba Street,-28.2002735,30.1560876,Likely_IsiZulu
43910594,Ukhamba Crescent,-29.7515177,30.9688893,Likely_IsiZulu
44214001,Ukhozi Road,-29.9577187,30.8569978,Likely_IsiZulu
39812427,Ukhula Street,-28.735636,31.8903277,Likely_IsiZulu
438058971,Ukhuni Avenue,-29.7535085,30.9512969,Likely_IsiZulu
48206169,Ukuhlabana Road,-29.6511361,30.8997803,Likely_IsiZulu
856628668,Ukuhlehla Street,-28.6295127,29.9070661,Likely_IsiZulu
44651793,Ukukhanya Street,-29.862808,30.7659479,Likely_IsiZulu
43672346,Ukuthula Road,-29.8994366,30.875102,Likely_IsiZulu
114916795,Ulundi Street,-28.883154,31.4590598,Likely_IsiZulu
43910977,Uluthando Avenue,-29.7348996,30.962074,Likely_IsiZulu
43911234,Uluve Road,-29.7451669,30.982517,Likely_IsiZulu
43752151,Ulwandle Drive,-29.7577534,30.9208747,Likely_IsiZulu
47711358,Umababaza Avenue,-29.720213,30.9676817,Likely_IsiZulu
198038370,Umabhengwane Street,-28.8731337,31.9048595,Likely_IsiZulu
437427762,Umamlambo Road,-28.6255557,29.9341729,Likely_IsiZulu
43886897,Umbango Road,-29.7616667,30.9945623,Likely_IsiZulu
198038352,Umbhodla Street,-28.8615448,31.9231998,Likely_IsiZulu
19784818,Umbilo Road,-29.8661115,30.9998779,Likely_IsiZulu
43911262,Umbonambi Road,-29.7436153,30.9855549,Likely_IsiZulu
94815875,Umbumbulu Road,-29.9924961,30.730072,Likely_IsiZulu
43910445,Umchanguzo Road,-29.751775,30.9939922,Likely_IsiZulu
43911263,Umcijo Road,-29.7438511,30.983749,Likely_IsiZulu
166179743,Umdloti Avenue,-27.7347413,29.9727187,Likely_IsiZulu
41946752,Umdoni Road,-30.3792739,30.6945112,Likely_IsiZulu
44215873,Umdoni Street,-29.9781547,30.8870712,Likely_IsiZulu
182422465,Umgenyane Road,-29.5293292,30.3113786,Likely_IsiZulu
48393019,Umgungundlovu Road,-29.5486995,31.12382,Likely_IsiZulu
166430456,Umhlaba Street,-28.2979595,31.4134895,Likely_IsiZulu
44216477,Umhlanga Road,-29.975193,30.8886336,Likely_IsiZulu
417225183,Umhlonyane Street,-29.4371828,31.2063708,Likely_IsiZulu
45880405,Umkhaba Road,-29.7391791,31.0159932,Likely_IsiZulu
198038407,Umkhololwane Street,-28.8744802,31.9064648,Likely_IsiZulu
43910755,Umlalazi Road,-29.7517214,30.982744,Likely_IsiZulu
216411741,Umngeni Road,-29.5019893,30.2209458,Likely_IsiZulu
44216834,Umnyezane Road,-29.9740789,30.8895139,Likely_IsiZulu
44099700,Umnyovu Road,-29.8948606,30.8448002,Likely_IsiZulu
45880447,Umoba Avenue,-29.7391501,31.0216082,Likely_IsiZulu
47711820,Umoya Avenue,-29.7141045,30.96656,Likely_IsiZulu
88390521,Umphafa Crescent,-28.5350364,29.7847432,Likely_IsiZulu
43911237,Umqhele Road,-29.7467759,30.9890394,Likely_IsiZulu
44215858,Umthente Drive,-29.9603766,30.9326515,Likely_IsiZulu
45446296,Umthombo Road,-29.6612566,31.0671181,Likely_IsiZulu
44214549,Umthombothi Street,-29.9478003,30.87924,Likely_IsiZulu
43910706,Umthwalume Road,-29.756016,30.9775671,Likely_IsiZulu
45880410,Umviyo Close,-29.7386886,31.0171874,Likely_IsiZulu
203706744,Umvoti Drive,-29.3704447,31.3513049,Likely_IsiZulu
43910683,Umvoti Road,-29.755497,30.9750942,Likely_IsiZulu
209502156,Umyezane Street,-28.6589309,32.0206738,Likely_IsiZulu
437988955,Umzabalazo Avenue,-29.7231194,30.9370685,Likely_IsiZulu
94101349,Umzimkulu Avenue,-27.7266423,29.9728549,Likely_IsiZulu
44215863,Umzimvubu Road,-29.9686088,30.8563112,Likely_IsiZulu
43910556,Umzinto Road,-29.7553045,30.9707883,Likely_IsiZulu
48057980,Umzinyathi Drive,-29.7110102,30.9319365,Likely_IsiZulu
43910557,Umzumbe Road,-29.7534452,30.972217,Likely_IsiZulu
95096168,Undabankulu Street,-28.2875617,31.4139931,Likely_IsiZulu
43911281,Undlondlo Road,-29.7445524,30.9825542,Likely_IsiZulu
43911265,Undluyengwe Road,-29.7439396,30.9848954,Likely_IsiZulu
44427142,Ungcede Street,-29.9379,30.9301971,Likely_IsiZulu
209502150,Unhliziyonkulu Street,-28.6597071,32.022084,Likely_IsiZulu
44215852,Unogwaja Street,-29.946695,30.8775435,Likely_IsiZulu
44103182,Unyazi Drive,-29.8534942,30.8478589,Likely_IsiZulu
125917651,Ushisizwe Street,-28.3403041,31.4171923,Likely_IsiZulu
48408162,Ushukela Drive,-29.5781257,31.1244171,Likely_IsiZulu
198038369,Usiba Road,-28.870991,31.9190827,Likely_IsiZulu
706485245,Usigananda Road,-29.7269262,30.9595642,Likely_IsiZulu
816941717,Usililo Street,-28.2882236,31.4273197,Likely_IsiZulu
47998720,Usindiso Avenue,-29.8187844,30.6304728,Likely_IsiZulu
437416647,Usinga Road,-28.6246716,29.927981,Likely_IsiZulu
45446022,Usizo Road,-29.6658891,31.0659288,Likely_IsiZulu
437428714,Usungolo Road,-28.6270145,29.9286087,Likely_IsiZulu
953641740,Usuthu Street,-28.8865865,31.4987389,Likely_IsiZulu
804091732,Uthando Road,-29.7175306,30.9460052,Likely_IsiZulu
44427093,Uthekwane Street,-29.9374765,30.9294914,Likely_IsiZulu
43910674,Uthukela Road,-29.7539494,30.9754808,Likely_IsiZulu
45096504,Uthulilwezichwe Road,-30.1743587,30.7655421,Likely_IsiZulu
58516130,Uvemvane Avenue,-29.7651022,30.8729424,Likely_IsiZulu
41141282,Uvongo Road,-29.7582613,30.8126201,Likely_IsiZulu
43910970,Uvukayibambe Road,-29.7443325,30.9781454,Likely_IsiZulu
121762517,Angazi Crescent,-29.777955,30.7479436,Possible_IsiZulu
44214427,Asikhulume Lane,-29.9576689,30.9037223,Possible_IsiZulu
438266543,Asiyingeni Lane,-29.7250862,30.9615469,Possible_IsiZulu
438266544,Asizwanga Road,-29.7256193,30.9610074,Possible_IsiZulu
44216241,Bambakahle Street,-30.0049956,30.8789413,Possible_IsiZulu
47711223,Bambanani Road,-29.713624,30.9567628,Possible_IsiZulu
819116140,Bambisisa Lane,-29.9552874,30.9069372,Possible_IsiZulu
45880506,Bhejane Street,-29.7272528,30.9884763,Possible_IsiZulu
47710680,Bhekimpilo Road,-29.7121409,30.9346109,Possible_IsiZulu
1203075543,Bhekinkosi Street,-28.5646294,31.3872392,Possible_IsiZulu
43982465,Bhekizizwe Khumalo Crescent,-29.9884467,30.8173327,Possible_IsiZulu
44215739,Bhekumuzi Avenue,-29.9915045,30.893103,Possible_IsiZulu
47712151,Bhekuyise Road,-29.7114039,30.9748983,Possible_IsiZulu
193114393,Bhekuzulu Road,-29.6338382,30.3250082,Possible_IsiZulu
44470250,Bhengu Road,-30.0484878,30.8726408,Possible_IsiZulu
43025902,Bhubesi Road,-29.8543201,30.9431808,Possible_IsiZulu
43911098,Bhungezi Road,-29.7269354,30.9784466,Possible_IsiZulu
44452233,Bongani Nzama Avenue,-30.0262367,30.8584503,Possible_IsiZulu
370902888,Bongani Street,-28.4343469,32.1416458,Possible_IsiZulu
437741080,Buhlakani Road,-29.7222368,30.9526967,Possible_IsiZulu
437282008,Buhle Street,-28.5979607,29.9257151,Possible_IsiZulu
857161922,Buhlebezwe Road,-29.8530496,30.9384504,Possible_IsiZulu
43025867,Cebekhulu Road,-29.8532465,30.9434168,Possible_IsiZulu
48143551,Cetshwayo Road,-29.6809342,30.782986,Possible_IsiZulu
44099840,Chakide Crescent,-29.8875171,30.8353873,Possible_IsiZulu
43910753,Dilikhulu Road,-29.7558436,30.9843108,Possible_IsiZulu
43752394,Dinangwe Lane,-29.7650566,30.9161819,Possible_IsiZulu
43911372,Dingiswayo Road,-29.7380537,30.997078,Possible_IsiZulu
43911318,Dladla Road,-29.7393135,30.9826521,Possible_IsiZulu
94333322,Dladla Street,-28.5714305,29.8269527,Possible_IsiZulu
47998662,Dlamini Road,-29.8253716,30.6372023,Possible_IsiZulu
44103559,Dlamini Street,-29.8490942,30.8521896,Possible_IsiZulu
171649688,Dlangalala Street,-28.19198,30.156772,Possible_IsiZulu
44215505,Dlangisa Avenue,-29.9519163,30.904354,Possible_IsiZulu
44215361,Dlokovu Street,-29.9636152,30.8687094,Possible_IsiZulu
43911306,Dlomo Road,-29.7349352,30.983163,Possible_IsiZulu
47998440,Dubandlela Road,-29.8295349,30.626744,Possible_IsiZulu
45880221,Dumisani Makhaye Drive,-29.760316,30.9819077,Possible_IsiZulu
417211659,Dumisani Ngidi Road,-29.4410419,31.2072752,Possible_IsiZulu
47712256,Dumisani Shangase Street,-29.6955216,30.9650094,Possible_IsiZulu
44214686,Fundakahle Road,-29.9681185,30.8838097,Possible_IsiZulu
44103574,Gatsheni Road,-29.855343,30.8507074,Possible_IsiZulu
44421776,Griffiths Mxenge Highway,-29.9597101,30.8474159,Possible_IsiZulu
44214554,Hambakahle Mkhonto Road,-29.9646484,30.8999078,Possible_IsiZulu
44099726,Hlabangani Street,-29.8870646,30.8240278,Possible_IsiZulu
47711062,Hlabelela Road,-29.7161011,30.9489104,Possible_IsiZulu
179449806,Hlabisa Road,-29.6444027,30.3538024,Possible_IsiZulu
47711154,Hlalele Road,-29.7084398,30.9406902,Possible_IsiZulu
44102923,Hlanganani Road,-29.8684674,30.8443515,Possible_IsiZulu
47712107,Hlongwane Road,-29.7163597,30.9764935,Possible_IsiZulu
43752488,Hloniphani Lane,-29.7589433,30.9216439,Possible_IsiZulu
107400975,Ibhubesi Road,-29.7746875,30.9939882,Possible_IsiZulu
44214546,Igwababa Crescent,-29.9478106,30.8788457,Possible_IsiZulu
44069886,Ikhabe Avenue,-30.0612865,30.8323862,Possible_IsiZulu
437280010,Imbenge Street,-28.6106079,29.9154066,Possible_IsiZulu
198038324,Imbila Street,-28.8914689,31.882725,Possible_IsiZulu
43910912,Imbiza Street,-29.7462472,30.9687511,Possible_IsiZulu
417736769,Imbokodo Road,-29.1306108,31.3870991,Possible_IsiZulu
437282004,Imbube Street,-28.5989314,29.9271301,Possible_IsiZulu
45471616,Impala Crescent,-29.7521731,31.0609976,Possible_IsiZulu
44102898,Impungushe Road,-29.8762252,30.846139,Possible_IsiZulu
47711327,Imvubu Crescent,-29.721385,30.9700126,Possible_IsiZulu
124540867,Isambane Street,-28.6675677,32.0214069,Possible_IsiZulu
44214578,Isandlwana Street,-29.9416859,30.8664409,Possible_IsiZulu
166429959,Ishishi Street,-28.3379049,31.4174662,Possible_IsiZulu
198038323,Ishoba Street,-28.8670894,31.9253048,Possible_IsiZulu
44461000,Ithambo Avenue,-29.9964184,30.8956081,Possible_IsiZulu
45446374,Ithemba Lama Africa Road,-29.6603489,31.0705139,Possible_IsiZulu
44427150,Ithimba Avenue,-29.9354189,30.9408112,Possible_IsiZulu
862955911,Itshe Road,-29.1327817,31.3858365,Possible_IsiZulu
43911103,Itsheketshe Road,-29.7272697,30.9778253,Possible_IsiZulu
44215487,Itshitshi Avenue,-29.9967742,30.880375,Possible_IsiZulu
437416648,Ivimbela Road,-28.6233725,29.9292677,Possible_IsiZulu
44216227,Izimbokodo Drive,-30.0041942,30.8841451,Possible_IsiZulu
374243211,Izwelabasha Street,-29.8686282,30.9534078,Possible_IsiZulu
43910584,Khozi Road,-29.7520689,30.9616035,Possible_IsiZulu
47710860,King Bhekuzulu Drive,-29.7100226,30.9332752,Possible_IsiZulu
18483766,King Cetshwayo Highway,-29.7893225,30.7309325,Possible_IsiZulu
205482910,King Dinuzulu Highway,-28.3315381,31.4063638,Possible_IsiZulu
855733939,King Shaka Road,-28.5596116,29.805118,Possible_IsiZulu
94447187,King Zwelithini Road,-28.5598492,29.8058785,Possible_IsiZulu
44215486,Kuyakhanya Avenue,-29.9921067,30.8802293,Possible_IsiZulu
44214147,Kuzolunga Street,-29.9626845,30.9103406,Possible_IsiZulu
58515928,Lahle Crescent,-29.7407011,30.8199206,Possible_IsiZulu
43025868,Langalibalele Road,-29.8525157,30.9396322,Possible_IsiZulu
39739635,Lethokuhle Road,-29.8550974,30.9587053,Possible_IsiZulu
42644517,Linda Crescent,-29.8567506,30.8981279,Possible_IsiZulu
44214170,Lindiwe Dlamini Road,-29.9484896,30.8944881,Possible_IsiZulu
44102911,Lindokuhle Street,-29.8711574,30.8306968,Possible_IsiZulu
47998640,Macingwane Road,-29.8015892,30.623181,Possible_IsiZulu
43911340,Madlala Road,-29.7358644,30.9900513,Possible_IsiZulu
437747907,Madlanduna Lane,-29.7266585,30.9518106,Possible_IsiZulu
43752172,Madlokovu Avenue,-29.7720167,30.8993114,Possible_IsiZulu
179780641,Makhathini Street,-28.185213,30.2374813,Possible_IsiZulu
805212873,Makhosana Street,-29.719809,30.9515569,Possible_IsiZulu
44214334,Mandlendlovu Road,-29.9615046,30.8612287,Possible_IsiZulu
43911335,Mangethe Road,-29.7356553,30.9849845,Possible_IsiZulu
95639423,Mangosuthu Buthelezi Drive,-28.8844977,31.4756728,Possible_IsiZulu
117083363,Mangosuthu Highway,-28.7736547,31.8612823,Possible_IsiZulu
43911276,Mangosuthu Road,-29.7417351,30.9847091,Possible_IsiZulu
437317075,Mashobane Street,-28.6299943,29.9037678,Possible_IsiZulu
47710910,Mashonisa Road,-29.7067993,30.9427984,Possible_IsiZulu
44214438,Masibambane Avenue,-29.9888656,30.8976408,Possible_IsiZulu
193456668,Mavundla Road,-29.656265,30.3372733,Possible_IsiZulu
193453727,Mazambane Road,-29.6402952,30.3039209,Possible_IsiZulu
174599128,Mbabazane Road,-29.6562,30.3569654,Possible_IsiZulu
438396757,Mbalenhle Road,-29.6774806,30.3412273,Possible_IsiZulu
179795873,Mbasa Street,-28.1812522,30.2340183,Possible_IsiZulu
43911219,Mbatha Road,-29.7405727,30.9885221,Possible_IsiZulu
47998534,Mbele Road,-29.8060284,30.6138404,Possible_IsiZulu
94333109,Mbhele Street,-28.5745102,29.8287985,Possible_IsiZulu
438367689,Mbila Road,-29.6612568,30.3451794,Possible_IsiZulu
44214663,Mbokodo Road,-29.970365,30.9052345,Possible_IsiZulu
44103170,Mbovu Road,-29.8585342,30.844457,Possible_IsiZulu
438367683,Mbube Road,-29.6575845,30.3463925,Possible_IsiZulu
437725037,Mbuso Road,-29.7215457,30.9452025,Possible_IsiZulu
481290910,Mdlalose Road,-28.2106512,30.6767235,Possible_IsiZulu
438378483,Mdlavuza Road,-29.6583952,30.3538647,Possible_IsiZulu
43910471,Mdloti Road,-29.7509157,30.9870008,Possible_IsiZulu
44530374,Mfazomnyama Khumalo Road,-30.0576265,30.8295854,Possible_IsiZulu
438367681,Mhlaba Road,-29.6572653,30.3486223,Possible_IsiZulu
43751867,Mhlabunzima Road,-29.7836124,30.898451,Possible_IsiZulu
44215314,Mhlongo Avenue,-29.9670239,30.8796227,Possible_IsiZulu
43910731,Mkhambathi Road,-29.7598095,30.9870877,Possible_IsiZulu
43982339,Mkhandeni Street,-29.9864104,30.8254556,Possible_IsiZulu
198038378,Mkhanyakude Street,-28.8666432,31.9143441,Possible_IsiZulu
198051841,Mkhaya Road,-29.1436836,31.3991099,Possible_IsiZulu
43910856,Mkhiwane Road,-29.7451926,30.9686706,Possible_IsiZulu
125138239,Mkhomazi Street,-28.8834873,31.892355,Possible_IsiZulu
43752296,Mkhonto Avenue,-29.7600277,30.9068476,Possible_IsiZulu
44215320,Mkhonzeni Street,-29.967683,30.8722048,Possible_IsiZulu
53293567,Mkhulu Crescent,-28.7615835,32.0697819,Possible_IsiZulu
44214675,Mkhuzeni Avenue,-29.94814,30.8754149,Possible_IsiZulu
43911353,Mkhwanazi Road,-29.734532,30.9861897,Possible_IsiZulu
44651733,Mlungisi Road,-29.8670254,30.7629446,Possible_IsiZulu
43910950,Mnambithi Road,-29.7498421,30.9805243,Possible_IsiZulu
193456651,Mngeni Road,-29.6542992,30.3445668,Possible_IsiZulu
438331261,Mngomezulu Road,-29.6522611,30.3403126,Possible_IsiZulu
44099725,Mntungwa Street,-29.8870581,30.8271117,Possible_IsiZulu
43910494,Mpangeni Road,-29.7529151,30.9803008,Possible_IsiZulu
48392994,Mphemba Circle,-29.5573422,31.1186356,Possible_IsiZulu
43911215,Mpumalanga Road,-29.7402299,31.0025965,Possible_IsiZulu
43911005,Mpungushe Road,-29.7384631,30.9744691,Possible_IsiZulu
44069766,Mshefana Mhlongo Road,-30.0600514,30.8246558,Possible_IsiZulu
47998572,Mshengu Road,-29.8117429,30.6262625,Possible_IsiZulu
94333327,Msibi Crescent,-28.5706497,29.8273535,Possible_IsiZulu
43910797,Msimbithi Road,-29.7491234,30.9589771,Possible_IsiZulu
632412267,Mthembu Road,-29.4699266,30.1573534,Possible_IsiZulu
47998538,Mthimkhulu Road,-29.8051505,30.6165096,Possible_IsiZulu
44214118,Mthombo Road,-29.9797953,30.8872475,Possible_IsiZulu
43910814,Mthombothi Road,-29.7489555,30.9579669,Possible_IsiZulu
176324398,Mtombeni Lane,-30.5469424,29.4364827,Possible_IsiZulu
47998561,Mtungwa Road,-29.8118711,30.6272216,Possible_IsiZulu
44214335,Mzwamandla Road,-29.9682005,30.8709343,Possible_IsiZulu
44214292,Mzwandile Khuzwayo Road,-29.972539,30.86685,Possible_IsiZulu
61089063,Nandi Mtembu Drive,-29.523908,31.1987341,Possible_IsiZulu
610823523,Ndaba Crescent,-28.5690646,29.8262887,Possible_IsiZulu
43910724,Ndlamu Road,-29.7528897,30.991715,Possible_IsiZulu
186623846,Ndlela Street,-28.8913868,31.4980609,Possible_IsiZulu
417623583,Ndlondlo Street,-29.3175267,31.2963112,Possible_IsiZulu
43911332,Ndlovu Road,-29.7363127,30.9851538,Possible_IsiZulu
43910971,Ndlulamithi Road,-29.7409964,30.9763679,Possible_IsiZulu
43911314,Ngcobo Road,-29.7365232,30.9889583,Possible_IsiZulu
47998536,Ngcolosi Road,-29.8061423,30.623846,Possible_IsiZulu
187180046,Ngema Street,-28.8898434,31.4964116,Possible_IsiZulu
44100122,Ngena Road,-29.8743637,30.8493829,Possible_IsiZulu
44214744,Ngilosi Grove,-29.9824289,30.8736439,Possible_IsiZulu
43982471,Nginga Zondi Street,-29.996012,30.8188313,Possible_IsiZulu
44461320,Ngobeni Road,-30.0141407,30.9135674,Possible_IsiZulu
120079279,Ngobese Street,-28.3247999,30.1267808,Possible_IsiZulu
44214742,Ngolovane Road,-29.9639473,30.8716358,Possible_IsiZulu
47998618,Ngubane Road,-29.804753,30.6121427,Possible_IsiZulu
179449287,Ngubo Road,-29.6421702,30.3513687,Possible_IsiZulu
136286341,Ngulube Street,-29.32383,31.3013134,Possible_IsiZulu
47710741,Ngungumbane Road,-29.7156052,30.9347668,Possible_IsiZulu
391965946,Nguni Road,-29.5280458,30.3119731,Possible_IsiZulu
44103521,Nguzuzane Street,-29.8645986,30.8591936,Possible_IsiZulu
47998529,Ngwane Road,-29.8074187,30.6041055,Possible_IsiZulu
117071701,Ngwelezane Road,-28.7776346,31.8799524,Possible_IsiZulu
850523999,Ngwemabala Road,-29.6630019,30.3448768,Possible_IsiZulu
43025935,Ngwenya Road,-29.8519737,30.9478406,Possible_IsiZulu
44099695,Nhlangulana Close,-29.8937413,30.8404191,Possible_IsiZulu
198051843,Nhlanhla Road,-29.1278017,31.3982455,Possible_IsiZulu
43910760,Nhlophenkulu Road,-29.7554662,30.9888108,Possible_IsiZulu
438376488,Nhloswana Road,-29.6712556,30.3468001,Possible_IsiZulu
438058938,Nhlwathi Road,-29.7494581,30.9466503,Possible_IsiZulu
43982303,Nhlwathi Street,-29.9962896,30.8240679,Possible_IsiZulu
171649723,Ningizimu Street,-28.1961155,30.1638292,Possible_IsiZulu
437334527,Njankomo Road,-28.6268995,29.8850809,Possible_IsiZulu
44214626,Njengabantu Drive,-29.9492705,30.9084564,Possible_IsiZulu
43887109,Njengabantu Sithole Street,-29.7542229,31.0016358,Possible_IsiZulu
44214627,Njokweni Crescent,-29.9675003,30.8758202,Possible_IsiZulu
43911274,Nkabinde Road,-29.7403225,30.9832652,Possible_IsiZulu
193456654,Nkabini Road,-29.6535155,30.3416788,Possible_IsiZulu
108779996,Nkala Street,-29.5665176,30.1846593,Possible_IsiZulu
44214613,Nkalankala Lane,-29.9645591,30.855266,Possible_IsiZulu
44214646,Nkanyamba Road,-29.9560071,30.8607695,Possible_IsiZulu
43756367,Nkanyezi Road,-29.7843701,30.888129,Possible_IsiZulu
44539150,Nkanyisweni Road,-30.0077473,30.7902468,Possible_IsiZulu
44214616,Nkathazo Road,-29.9658565,30.8611073,Possible_IsiZulu
47711128,Nkawu Road,-29.7101542,30.9435165,Possible_IsiZulu
44103309,Nkazimulo Road,-29.8324135,30.807837,Possible_IsiZulu
437283423,Nkentshane Street,-28.602459,29.9264381,Possible_IsiZulu
43026004,Nkomo Road,-29.847617,30.9500137,Possible_IsiZulu
136286328,Nkomonophondo Street,-29.3228979,31.3011505,Possible_IsiZulu
43982888,Nkomozakhe Crescent,-30.000267,30.8249683,Possible_IsiZulu
43911284,Nkondlo Road,-29.7488585,30.9944666,Possible_IsiZulu
43910500,Nkonjane Road,-29.7561704,30.9636225,Possible_IsiZulu
47711123,Nkonkoni Road,-29.7097912,30.9429412,Possible_IsiZulu
47710911,Nkonyane Road,-29.7066079,30.9426006,Possible_IsiZulu
44103497,Nkosana Majozi Close,-29.8736729,30.8608582,Possible_IsiZulu
44215319,Nkosi Mhlabunzima Maphumulo Crescent,-29.9527478,30.8874793,Possible_IsiZulu
850856031,Nkosi Road,-29.6561807,30.3396002,Possible_IsiZulu
48392982,Nkosibomvu Road,-29.5560644,31.1231936,Possible_IsiZulu
43751906,Nkosinathi Mbokazi Street,-29.7828052,30.896437,Possible_IsiZulu
803680075,Nkulumo Road,-29.7185367,30.9504631,Possible_IsiZulu
437283419,Nkunzi Street,-28.6051884,29.926861,Possible_IsiZulu
43911269,Nokhenke Road,-29.744581,30.9844394,Possible_IsiZulu
61978822,Nolangeni Ridge Road,-30.819999,30.3953055,Possible_IsiZulu
43910782,Nongoma Road,-29.7408656,30.980347,Possible_IsiZulu
108870431,Nonkosi Road,-29.5181832,30.2231848,Possible_IsiZulu
185126328,Nonkululeko Mahlaba Street,-30.2723314,29.9389745,Possible_IsiZulu
746631385,Nontombi Road,-29.6335847,30.3340057,Possible_IsiZulu
44215937,Nozishada Road,-29.9865113,30.8683496,Possible_IsiZulu
44099240,Nozungeza Road,-29.88285,30.7985456,Possible_IsiZulu
437282014,Nsimba Street,-28.5987185,29.9311836,Possible_IsiZulu
801523066,Nsimbi Mkhize Crescent,-29.9873173,30.8173483,Possible_IsiZulu
48070987,Nsimbini Road,-29.7070769,30.7931832,Possible_IsiZulu
44651756,Nsingizi Road,-29.848365,30.7703967,Possible_IsiZulu
43886999,Ntabakayikhonjwa Lane,-29.7629315,30.9915623,Possible_IsiZulu
43910672,Ntabamhlophe Road,-29.7573378,30.9776018,Possible_IsiZulu
43910605,Ntabankulu Road,-29.7581559,30.9761467,Possible_IsiZulu
48551416,Ntabeni Road,-29.7909517,30.7705804,Possible_IsiZulu
44214449,Ntando Avenue,-29.9880861,30.8988792,Possible_IsiZulu
437741081,Ntatheli Road,-29.7243769,30.9520781,Possible_IsiZulu
44099303,Ntethe Street,-29.8828199,30.8226752,Possible_IsiZulu
43025792,Ntokozo Avenue,-29.8616681,30.9485126,Possible_IsiZulu
775252862,Ntolwane Road,-29.6528117,30.3556573,Possible_IsiZulu
47712043,Ntshangase Avenue,-29.7168811,30.9764703,Possible_IsiZulu
47998482,Ntshangase Road,-29.8175022,30.6173135,Possible_IsiZulu
218052051,Ntshangase Street,-28.2148637,30.6742985,Possible_IsiZulu
44103522,Ntshebe Street,-29.8647892,30.8595271,Possible_IsiZulu
179338282,Ntshonalanga Street,-28.2002133,30.1647921,Possible_IsiZulu
43910486,Ntunjambili Road,-29.7558448,30.9844393,Possible_IsiZulu
48393017,Ntuthuku Street,-29.5479152,31.1198699,Possible_IsiZulu
43910779,Ntuthwane Road,-29.7292242,30.9767839,Possible_IsiZulu
48057982,Ntuzuma Main Road,-29.7651659,30.9498127,Possible_IsiZulu
44102783,Nxele Crescent,-29.8779664,30.8393986,Possible_IsiZulu
117083378,Nyamazane Crescent,-28.7762009,31.8528407,Possible_IsiZulu
44214636,Nyathi Crescent,-29.9519663,30.8690222,Possible_IsiZulu
176324366,Nyembezi Road,-30.5487977,29.4425373,Possible_IsiZulu
43911058,Nyendle Road,-29.726365,30.9747164,Possible_IsiZulu
47711130,Nyengelezi Avenue,-29.7102664,30.9454881,Possible_IsiZulu
44069862,Nyonemhlophe Close,-30.056622,30.8304329,Possible_IsiZulu
44215345,Nyonenhle Close,-29.98961,30.8718355,Possible_IsiZulu
58516261,Nzinga Drive,-29.7426427,30.843563,Possible_IsiZulu
43910836,Ochwepheshe Avenue,-29.7357727,30.9541251,Possible_IsiZulu
196077433,Ondongweni Road,-27.0167162,32.4466951,Possible_IsiZulu
44651755,Phambili Street,-29.8616203,30.7630396,Possible_IsiZulu
44214247,Phambuka Street,-29.9609274,30.8683172,Possible_IsiZulu
44214246,Phangandawo Road,-29.9734234,30.8778195,Possible_IsiZulu
43886982,Phembeni Lane,-29.7631406,30.9908514,Possible_IsiZulu
43982315,Phenduka Crescent,-29.9934809,30.8264714,Possible_IsiZulu
117083372,Phesheya Road,-28.7775771,31.8509692,Possible_IsiZulu
44214231,Phezukomkhono Lane,-29.9614925,30.8451961,Possible_IsiZulu
189745026,Phindangene Road,-29.7502206,30.9477727,Possible_IsiZulu
43910492,Phongolo Road,-29.7535233,30.9804393,Possible_IsiZulu
47998393,Saganga Highway,-29.8300621,30.625659,Possible_IsiZulu
43910954,Sambane Road,-29.7429615,30.9733873,Possible_IsiZulu
43910972,Sandlwana Road,-29.7404413,30.9801263,Possible_IsiZulu
862075181,Sangoma Street,-29.4373438,31.2138402,Possible_IsiZulu
47998383,Sangweni Road,-29.8051801,30.6294174,Possible_IsiZulu
44214183,Sdumo Mdluli Street,-29.971734,30.8756892,Possible_IsiZulu
44214212,Senzangakhona Road,-29.9461989,30.871087,Possible_IsiZulu
43982896,Sgubhu Street,-29.9880686,30.8234941,Possible_IsiZulu
94333086,Shabalala Street,-28.5729334,29.827858,Possible_IsiZulu
98640043,Shaka Street,-29.5987171,30.417411,Possible_IsiZulu
52086594,Shandu Street,-27.7853094,30.8232305,Possible_IsiZulu
52465497,Shenge Street,-27.9934393,30.7191219,Possible_IsiZulu
43911261,Shezi Road,-29.7409253,30.9872198,Possible_IsiZulu
47998437,Shoba Road,-29.8303567,30.6279332,Possible_IsiZulu
47711197,Shonakhona Road,-29.7175326,30.9554997,Possible_IsiZulu
94352112,Shosholosa Street,-28.5797136,29.8288442,Possible_IsiZulu
706485248,Sibahle Avenue,-29.7282866,30.9621086,Possible_IsiZulu
179780615,Sibongile Street,-28.1779363,30.2365461,Possible_IsiZulu
171649683,Sibongumthetho Street,-28.1910556,30.1579936,Possible_IsiZulu
458713510,Sicelankobe Street,-28.6241362,29.9195544,Possible_IsiZulu
44215090,Sidlodlo Road,-29.9730045,30.8714571,Possible_IsiZulu
47711060,Sidudla Road,-29.7098436,30.9481361,Possible_IsiZulu
44427128,Sihlahla Road,-29.9481189,30.9464719,Possible_IsiZulu
43910730,Sihlobo Road,-29.7583072,30.9885502,Possible_IsiZulu
437741072,Sikebheni Road,-29.722474,30.9486984,Possible_IsiZulu
437725041,Sikhaleni Road,-29.718155,30.9471568,Possible_IsiZulu
43911249,Sikhindi Road,-29.748914,30.9871706,Possible_IsiZulu
44215096,Sikhonko Road,-29.9701481,30.8864602,Possible_IsiZulu
43982894,Sikhonzi Road,-29.9989787,30.8290803,Possible_IsiZulu
98639927,Sikhosana Street,-29.596353,30.4244209,Possible_IsiZulu
117083379,Sikhova Road,-28.7820206,31.8510491,Possible_IsiZulu
44215100,Silwelinkululeko Road,-29.9683723,30.9051915,Possible_IsiZulu
171649630,Sinethemba Street,-28.2009341,30.155335,Possible_IsiZulu
44103506,Siphetho Crescent,-29.8642972,30.8599121,Possible_IsiZulu
43982469,Sipho Tembe Road,-29.9905889,30.8149019,Possible_IsiZulu
44102788,Siphongo Street,-29.8822005,30.8313593,Possible_IsiZulu
44103524,Siqedile Crescent,-29.8643358,30.8568936,Possible_IsiZulu
198051907,Sisonke Road,-29.1403398,31.3967421,Possible_IsiZulu
43752256,Sithandokuhle Street,-29.7678049,30.9112931,Possible_IsiZulu
39739645,Siyabonga Street,-29.8534767,30.961568,Possible_IsiZulu
47710949,Siyahlala Road,-29.7151354,30.9594744,Possible_IsiZulu
198051847,Siyakha Road,-29.1300393,31.3911212,Possible_IsiZulu
198051883,Siyakhula Road,-29.1258742,31.3999856,Possible_IsiZulu
47711049,Siyavuma Crescent,-29.7123749,30.955573,Possible_IsiZulu
47710996,Sizabantu Road,-29.7190412,30.9595916,Possible_IsiZulu
44452069,Sizwe Ngcobo Avenue,-30.0343711,30.86111,Possible_IsiZulu
47998341,Skhosana Road,-29.805053,30.6297923,Possible_IsiZulu
855541643,Skhosana Street,-28.5759245,29.8299025,Possible_IsiZulu
44215119,Skhova Lane,-29.9705132,30.8522197,Possible_IsiZulu
744278089,Skhumbuzo Ngwenya Road,-29.6467707,30.3667788,Possible_IsiZulu
98639957,Sobantu Street,-29.5975819,30.4199493,Possible_IsiZulu
45096529,Sobonakhona Road,-30.1712559,30.7746512,Possible_IsiZulu
47998656,Sofasonke Road,-29.8270909,30.6488539,Possible_IsiZulu
44102785,Sonto Road,-29.879385,30.8339935,Possible_IsiZulu
47710990,Sosha Road,-29.7152843,30.9592254,Possible_IsiZulu
44103168,Sotobe Crescent,-29.8596208,30.8433785,Possible_IsiZulu
44215875,Sozesakhohlwa Road,-29.9676712,30.901262,Possible_IsiZulu
44099844,Sthembiso Ngcobo Street,-29.8875005,30.8371535,Possible_IsiZulu
43982475,Thamsanqa Ngcobo Street,-29.9934439,30.8168188,Possible_IsiZulu
437279991,Thembalethu Street,-28.607075,29.9157016,Possible_IsiZulu
41570893,Thembanani Road,-29.8533682,30.9374502,Possible_IsiZulu
44216875,Thingo Street,-29.9632397,30.8721692,Possible_IsiZulu
44216024,Thubelihle Khumalo Road,-29.9569371,30.9218488,Possible_IsiZulu
43751859,Thulani Masango Road,-29.7860582,30.8978299,Possible_IsiZulu
417225225,Tsheketshe Road,-29.4357185,31.2144079,Possible_IsiZulu
44102128,Tshelimnyama Road,-29.8416959,30.8073653,Possible_IsiZulu
774669981,Tshwala Street,-28.5749388,29.8261656,Possible_IsiZulu
45880220,Velabahleke Road,-29.7355842,31.0218595,Possible_IsiZulu
44651799,Vukuzakhe Street,-29.8638448,30.7628435,Possible_IsiZulu
47711136,Vulamehlo Road,-29.7111075,30.941342,Possible_IsiZulu
44214065,Vulindlela Crescent,-29.969314,30.8920972,Possible_IsiZulu
863751539,Vulingqondo Road,-28.7675422,31.8660372,Possible_IsiZulu
43911387,Vuma Crescent,-29.7386422,31.0045604,Possible_IsiZulu
43982799,Vumani Crescent,-29.9953665,30.8262487,Possible_IsiZulu
44214028,Vumani Khawula Avenue,-29.9697693,30.8663356,Possible_IsiZulu
44452152,Vumani Makhathini Road,-30.0196009,30.873477,Possible_IsiZulu
39739618,Vumbuka Street,-29.8564095,30.9580602,Possible_IsiZulu
43911381,Vusi Dlamini Road,-29.7344256,30.9959847,Possible_IsiZulu
44215697,Vusi Mhlongo Road,-29.9725019,30.879974,Possible_IsiZulu
44216428,Vusi Mtshali Drive,-29.9659615,30.8788525,Possible_IsiZulu
117083380,Wayekhona Road,-28.7765556,31.8527622,Possible_IsiZulu
48079649,Welamlambo Road,-29.7343105,30.8679057,Possible_IsiZulu
47998351,Ximba Road,-29.8256218,30.6298501,Possible_IsiZulu
47712585,Xolani Mthembu Close,-29.6994266,30.9681356,Possible_IsiZulu
44069902,Xolani Ncanjane Crescent,-30.0692324,30.829354,Possible_IsiZulu
858807034,Xolani Ngema Street,-29.9931565,30.8198258,Possible_IsiZulu
43982460,Xolani Ngidi Street,-29.9901336,30.8161347,Possible_IsiZulu
117083393,Yengwayo Road,-28.7757368,31.8494899,Possible_IsiZulu
44121392,Zabalaza Crescent,-29.7828823,30.8855087,Possible_IsiZulu
43025952,Zakhele Mlambo Road,-29.8526832,30.9491952,Possible_IsiZulu
44215475,Zakheleni Road,-29.9884193,30.8730369,Possible_IsiZulu
44214939,Zama Ngcobo Avenue,-29.9749724,30.8817468,Possible_IsiZulu
863496041,Zambezi Road,-28.8852334,31.8938962,Possible_IsiZulu
58515972,Zamokuhle Road,-29.7711084,30.8690095,Possible_IsiZulu
437741071,Zashima Road,-29.7219906,30.9493588,Possible_IsiZulu
43751902,Zethembiso Lane,-29.7812881,30.8983945,Possible_IsiZulu
44069737,Zibandlela Road,-30.0550689,30.8160491,Possible_IsiZulu
43911309,Zibhebhu Road,-29.7332193,30.9917513,Possible_IsiZulu
44215538,Zibokwakhe Lane,-29.9555142,30.9007315,Possible_IsiZulu
44215510,Zihlahla Road,-29.9476347,30.862515,Possible_IsiZulu
136284416,Zikhali Street,-29.3284903,31.2999221,Possible_IsiZulu
43911337,Zikhinjana Road,-29.736899,30.9840212,Possible_IsiZulu
44214086,Zimbali Road,-29.9577002,30.9121182,Possible_IsiZulu
45242229,Zinto Cele Road,-29.920831,31.0055214,Possible_IsiZulu
44452122,Zolile Mnguni Avenue,-30.0347539,30.8621002,Possible_IsiZulu
48206049,Zonke Road,-29.6785566,30.9247804,Possible_IsiZulu
43982802,Zungeza Street,-29.9969983,30.8252248,Possible_IsiZulu
43756339,Zungu Road,-29.7978811,30.8998215,Possible_IsiZulu
179338340,Zuzokuhle Street,-28.200411,30.1643682,Possible_IsiZulu
44214951,Zwe Madlala Drive,-29.9587473,30.893796,Possible_IsiZulu
44099297,Zwelabo Crescent,-29.8805787,30.8059497,Possible_IsiZulu
