OSM_ID,Street_Name,Latitude,Longitude
45880393,Aaron Ngema Place,-29.732548,31.0120255
44426964,Abafana Place,-29.9412504,30.9470143
43910986,Abaphaphi Close,-29.736166,30.9638075
47710986,Abelusi Walk,-29.7180256,30.9390293
48782318,Albert Dlomo Road,-29.8689859,30.9915965
437326819,Albert Luthuli Drive,-28.6414855,29.887278
43756435,Albert Madikizela Street,-29.7893976,30.9068423
59595583,Albert Meyer Drive,-30.8081094,30.4109996
89176313,Albert Oliff Road,-29.6243471,30.4259112
42897088,Albert Road,-29.8234585,30.8356065
47945892,Albert Street,-29.736618,30.6706943
48573080,Albert Terrace,-29.8713444,31.0462182
202406431,Albert Wessels Drive,-27.7668278,29.9433736
87361224,Alberta,-28.7499794,32.0580001
39316284,Alberta Crescent,-27.774249,30.774537
61046790,Albertina Way,-29.5304917,31.2013271
47951419,Albinia,-29.7976222,30.7668132
809078070,Albinia Road,-29.7648459,30.7765592
48667462,Albion Place,-29.8212027,31.0222459
87361228,Albizia Avenue,-28.749012,32.0592041
149721547,Albizia Close,-29.5189346,31.221698
706914225,Albizia Drive,-29.5691291,30.3356822
45619751,Albizia Grove,-29.7241361,31.0403777
41571071,Albizia Place,-29.8226103,30.937069
45445440,Albizia Road,-29.7147132,31.0699215
442919959,Albizia Street,-28.6018639,32.0832338
87265690,Albrecht Street,-28.5457072,29.7915604
697025625,Albus Street,-29.8392002,30.8837198
48782514,Alcock Crescent,-29.8490627,30.9882319
45242206,Alden Road,-29.918728,31.0007405
45668843,Alder Close,-29.6513493,31.0014451
45880962,Aldergate Avenue,-29.729032,31.0314915
45882395,Alderham Place,-29.6873893,30.9882008
48190235,Alec Bean Road,-29.6304027,31.0565111
804217287,Alek Close,-29.7874185,30.9328245
43672315,Alentia Grove,-29.9029889,30.8658236
55904231,Alesund Road,-30.7561717,30.4355944
42644300,Aletta Place,-29.8763628,30.889324
148807005,Alex Mntambo Street,-29.442152,30.100088
44099804,Allen Mhlanzi Place,-29.8895021,30.8361486
8795101,Allen Place,-29.5444243,31.2087424
118709538,Allen Road,-29.6315983,30.386581
55874053,Allen Street,-27.7481422,29.9324238
48782083,Allenby Gardens,-29.8838565,30.9857736
42644299,Allenby Lane,-29.8821323,30.9270992
48391653,Allenby Road,-29.7810324,31.0187041
44121348,Aller Crescent,-29.792512,30.8752043
45882652,Allerford Road,-29.6919233,31.0091166
87314766,Allerton Road,-29.5758668,30.3610622
44359009,Alleydale Place,-29.778192,30.9639536
45881291,Allingham Road,-29.7014932,30.987214
45880538,Allingstone Crescent,-29.7119452,30.990836
89068569,Allison Road,-29.6131671,30.4012496
107915354,Allkins Drive,-30.3249771,30.734295
44461077,Ally Road,-29.9716602,30.9357399
58515989,Almond Avenue,-29.7768933,30.8802656
58516531,Almond Close,-29.7763481,30.8810334
45668872,Almond Lane,-29.6592371,31.0104611
43672597,Almond Road,-29.926598,30.9320588
39724424,Alms Place,-29.8452843,30.9653988
119199509,Aloe,-28.7511703,31.906338
58516096,Aloe Avenue,-29.776755,30.8870856
627366691,Aloe Close,-29.5164331,31.217326
48408235,Aloe Crescent,-29.5915951,31.1645413
45668964,Aloe Drive,-29.6598872,31.0450112
171651680,Aloe Grove,-28.1825766,30.146414
198023670,Aloe Loop,-28.7413886,32.0515958
417211510,Aloe Place,-29.4514946,31.2124736
42897098,Aloe Road,-29.8252964,30.844083
45094601,Aloe Street,-30.2094304,30.7621914
44003057,Aloefield Crescent,-29.8047692,30.996532
44007162,Aloegate Crescent,-30.0288732,30.8902507
38142274,Alpaca Place,-29.823063,30.9684896
39344340,Alpha Close,-29.8924607,30.9804625
39294116,Alpha Crescent,-29.8935416,30.9815002
171651678,Alpha Street,-28.1775167,30.1468298
44446269,Alphen Avenue,-29.9122459,30.9685902
44099293,Alpine Drive,-29.8849713,30.8775901
87439455,Alpine Grove,-29.5636724,30.4012131
42897563,Alpine Place,-29.80563,30.8631139
25006776,Alpine Road,-29.8196956,30.9993413
771346881,Alpine Walk,-28.7312079,32.0417594
167796730,Alpine Way,-30.8257171,30.3898613
118761544,Altair Avenue,-29.5972186,30.3579463
45082568,Altcar Place,-29.9441417,30.9793495
41571038,Althea Road,-29.8310629,30.9247243
48782160,Alton Road,-29.8759569,30.9761981
48610662,Altona Avenue,-29.8011298,31.0163563
198024811,Alugang Street,-28.7604215,32.0081897
198025193,Alumina Allee,-28.7390914,32.0361707
44215478,Aluta Continua Road,-29.9673722,30.9027261
43982491,Alutha Mkhize Avenue,-29.9932532,30.813303
45881307,Alverstone Place,-29.7047676,30.9824241
32458594,Alverstone Road,-29.7627883,30.7241618
43672152,Alviera Place,-29.9060344,30.869451
45082569,Alwar Road,-29.9525204,30.968053
99047392,Alwar Square,-29.5715905,30.3938807
42897502,Alwyn Place,-29.8288605,30.8830789
44215520,Amabomvu Place,-29.9647152,30.8997959
44069831,Amabutho Close,-30.0662231,30.8344388
44103508,Amabutho Place,-29.8665554,30.8625338
437741090,Amachwane Avenue,-29.7295352,30.9517835
43910844,Amadada Crescent,-29.7354283,30.9600283
44215706,Amadlebe Place,-29.9941227,30.8856902
45446414,Amadlelo Way,-29.6579956,31.0731913
47710656,Amadumbe Walk,-29.7189795,30.935704
43752050,Amafu Walk,-29.7807367,30.9114689
863513138,Amagenzi Street,-28.8696112,31.9255213
43910999,Amagrapes Grove,-29.7293347,30.960892
43025806,Amagugu Hill,-29.8551461,30.9403594
437741087,Amagwababa Avenue,-29.7277829,30.9514621
44069840,Amagwava Circle,-30.0713888,30.8385965
437741088,Amahobhe Close,-29.7289592,30.9496341
44215045,Amahubo Lane,-29.9588887,30.8914849
45096586,Amahwaqa Road,-30.1638882,30.7712368
775049154,Amajuba Close,-28.5309342,29.7750605
44358770,Amajuba Lane,-29.7744498,30.9324348
94063056,Amajuba Street,-27.7630458,29.9297523
47711079,Amakati Walk,-29.717615,30.9388272
43910843,Amakhono Close,-29.7357348,30.9568162
44214442,Amakhosi Walk,-29.9936296,30.895057
95096137,Amakhwenkwe Street,-28.2887412,31.4103721
44215389,Amalahle Lane,-29.9905895,30.8718215
1359419887,Amalda Avenue,-29.4703317,31.2628429
44216181,Amalombo Lane,-30.0034961,30.8829367
44069734,Amampunge Place,-30.0545352,30.8180994
42897002,Amand Place,-29.8396376,30.8361977
87439392,Amanda Crescent,-29.5584104,30.3918656
44099823,Amanda Godlo Place,-29.8880091,30.8314833
43910746,Amandawe Road,-29.7545087,30.9865808
44214772,Amandla Close,-29.9841326,30.8792051
47998513,Amandla Road,-29.8177698,30.6266055
39256783,Amandlacrest Way,-29.8546216,30.9765291
437988960,Amanqe Avenue,-29.7213408,30.9384942
43752252,Amanqe Close,-29.7700117,30.915033
209502169,Amansana Street,-28.6613998,32.0255875
39739655,Amanzibar Walk,-29.8527266,30.9669942
44013033,Amanzimnyama Hill Road,-29.5704547,31.1270157
43910443,Amanzimnyama Road,-29.7511374,30.9805529
43910473,Amanzimtoti Road,-29.7524235,30.9777999
438266554,Amaorange Road,-29.7273676,30.9599325
43025895,Amaphuphu Walk,-29.8546554,30.9414798
44069788,Amaqhawe Place,-30.0556264,30.8282272
45445629,Amaqhawe Street,-29.6641183,31.0695131
48391647,Amarshi Place,-29.7784197,31.0093433
48782276,Amaryllis Avenue,-29.8818826,30.9869711
42644301,Amaryllis Grove,-29.8638994,30.8921981
390436065,Amasethole Street,-28.8567561,31.8398434
198038342,Amashwidi Street,-28.8651859,31.9197036
44215602,Amasiko Walk,-29.9753395,30.8904288
43025931,Amasuville Walk,-29.8512874,30.9470613
48205893,Amatata Drive,-29.6338169,30.8582217
44358814,Amathanga Place,-29.7740491,30.9307553
44215722,Amathonsi Grove,-29.9855592,30.8841986
44358767,Amathuba Walk,-29.7732834,30.9320454
78623582,Amatikulu Avenue,-27.7224412,29.9728134
43910444,Amatikulu Road,-29.7516792,30.980721
124907253,Amaviyo Lane,-29.7277099,30.9596551
437741046,Amavondwe Close,-29.724624,30.9409343
44216315,Amawele Circle,-29.9599346,30.8948471
44216004,Amawele Lane,-29.9624072,30.8983955
706477403,Amawisa Avenue,-29.7435521,30.9444685
438008989,Amawundlu Avenue,-29.7342985,30.9449288
47711021,Amazambane Walk,-29.7185969,30.9385189
219628731,Amazibu Pan Loop,-28.3136114,32.4363057
182426915,Amazon Avenue,-29.2208236,29.9997341
89249393,Amazon Road,-29.6425167,30.4037625
45082570,Ambala Road,-29.9496643,30.958318
45260275,Ambar Road,-29.912536,30.9884179
43672572,Ambassador Road,-29.9225385,30.9251994
116636914,Amber Avenue,-29.4862957,30.2107776
45446613,Amber Drive,-29.583532,31.0869121
44470680,Amber Place,-30.0503619,30.8878085
44102144,Amber Road,-29.8718737,30.7995478
44359033,Amberdale Road,-29.7791868,30.9669711
45881287,Amblen Place,-29.6987329,30.9913584
45884390,Amblepalm Place,-29.6666187,31.0231061
42644302,Ambler Place,-29.8682728,30.9138379
45471728,Ambleside Avenue,-29.7479372,31.0638929
42897559,Ambleside Lane,-29.8191922,30.8831562
45082571,Ambleside Road,-29.9366644,30.9831242
100607880,Amcor Road,-27.7570945,29.9408501
44102667,Amdokwe Street,-29.8752839,30.8233462
119291398,Ameer Road,-28.0158517,30.0581185
44215496,Amehlo Close,-30.0018335,30.8767977
44359088,Amen Street,-29.7701469,30.9440177
43672188,Amenities Walk,-29.9229206,30.8918001
41571330,Amersham Road,-29.8169286,30.9221341
193666077,Amethyst Crescent,-29.5514022,30.4254368
45446614,Amethyst Drive,-29.5819564,31.0857091
42644303,Amethyst Place,-29.8706568,30.8923581
94078248,Amethyst drive,-27.7255646,29.9463733
47884547,Ametis Crescent,-27.7836371,30.785594
94093484,Amiel Road,-27.7443885,29.924895
44461086,Amilcar Cabral Road,-29.9965041,30.9440104
45095127,Amlock Drive,-29.7944468,30.9738191
45668983,Amman Circle,-29.6528855,31.0325897
98191794,Amod Road,-29.5568452,30.4129046
42644304,Amon Avenue,-29.879107,30.9097814
45082573,Amoora Road,-29.9491875,30.9770183
118846996,Amor Street,-29.6412998,30.3982406
45668979,Amora Drive,-29.6522215,31.0399509
44013032,Amora Knoll,-29.5843856,31.1012368
879138259,Ampere Avenue,-27.8371822,29.9952138
550424449,Amphitheatre,-29.5654015,30.354536
44102693,Amrit Road,-29.8674734,30.8106142
45082572,Amritsar Place,-29.9535256,30.959632
99047286,Amritsar Road,-29.5526654,30.3850166
45880871,Amvale Place,-29.7112596,31.005145
417433507,Amy Amber Avenue,-29.5051896,31.2010775
89476278,Amy Wilson Drive,-29.5749635,30.2850151
45669109,An-noor Crescent,-29.6482432,31.0639041
94329100,Anchor Road,-28.5728822,29.789239
44359213,Anchova Place,-29.7686434,30.9791343
45242208,Ancketill Avenue,-29.9151378,31.0219782
42644305,Anderson Road,-29.8717281,30.8816768
39316279,Anderson Street,-27.7841556,30.778412
44099951,Andes Street,-29.8922194,30.8731431
99047356,Andhra Road,-29.5533215,30.3866584
45242209,Andora Road,-29.9178359,31.0106312
44004223,Andra Drive,-29.5398676,31.1366082
776026991,Andra Street,-28.5767374,29.7849011
167105281,Andreasen Street,-30.739033,30.4417241
590069523,Andrew,-28.7916139,32.0928566
853211766,Andrew Street,-29.4796839,30.2205967
44470406,Andrew Zondo Road,-30.0650198,30.8775767
89249313,Andries Pretorious Road,-29.640399,30.390236
94084495,Andries Pretorius Avenue,-27.7378148,29.9586498
860936936,Andries Pretorius Crescent,-30.9042124,30.323091
71171294,Andries Pretorius Street,-28.8521282,30.0811257
45881401,Andromeda Street,-29.7033576,31.0009054
551004375,Andy's Amble,-29.5642599,30.3454949
48667466,Anerley Lane,-29.817257,31.0232776
48667463,Anerley Road,-29.8175925,31.0227935
44358954,Anfield Close,-29.7732009,30.9475079
121762513,Angazi Close,-29.777266,30.7468828
121762517,Angazi Crescent,-29.777955,30.7479436
43672093,Angel Place,-29.9050353,30.8575359
45242210,Angelier Road,-29.9331647,30.9972117
118820930,Angeliers Road,-29.6182954,30.3570764
44370453,Angle Road,-29.8938221,30.9456154
45883088,Anglepark Place,-29.676165,31.0171671
971656733,Anglers Lane,-31.0153267,30.2529131
39812413,Anglers Rod Road,-28.7828681,32.1028369
45881139,Anglewood Close,-29.6817007,31.0255269
43672343,Angola Road,-29.8990092,30.8748829
121763746,Angus Drive,-29.7695959,30.7571295
42897234,Angus Road,-29.8467119,30.8757392
45471573,Anil Road,-29.7575054,31.0585875
44102165,Aniseed Avenue,-29.8745605,30.7889596
136289498,Anisha Street,-29.3191562,31.2892804
44446271,Anleno Road,-29.9152629,30.9693071
45471596,Ann Abor Road,-29.760411,31.063827
107915344,Ann Arbor Road,-30.2996344,30.7464462
177089875,Ann Arbour Road,-30.3857713,30.6864293
19541643,Ann Place,-29.7841106,30.8040579
181255504,Ann Sonnenberg Street,-29.4306602,30.5698496
42644306,Anna Road,-29.8696862,30.9169088
44470223,Anna Scheepers Road,-30.0705761,30.8510299
45082579,Annabella Place,-29.9439624,30.9769571
48610788,Annan Place,-29.7991413,31.0302485
860629974,Anne Barnard Road,-30.8555772,30.3458084
58516143,Anne Place,-29.7529122,30.8445354
253576967,Anne Road,-30.562529,30.5799095
87180013,Anne Stafford Drive,-29.5756557,30.3480318
45094644,Anne Street,-30.2041375,30.7907779
39349602,Annemoon Street,-27.7806518,30.805996
42897645,Annerley Road,-29.8019863,30.8610597
46695759,Annet Drive,-29.7914783,30.9310986
48085147,Annette Avenue,-29.742352,30.6823608
47438500,Annthia Road,-29.5529259,30.2888245
45242212,Anstey Road,-29.9221137,31.0192569
89561175,Antelope Alley,-28.735596,32.0462689
38099624,Antelope Place,-29.8291357,31.0001218
119199491,Anthony Crescent,-28.7528198,31.9004171
19541615,Anthony Drive,-29.7793632,30.7975443
39725970,Anthony Lembede Avenue,-29.8537225,30.9694035
44215525,Anthony Lembede Lane,-29.9452689,30.8968796
48610637,Anthony Road,-29.8023218,31.0233225
44003083,Anthurium Place,-29.8046343,30.9916043
92032944,Anthurium Road,-30.8790919,30.3492151
94063054,Antilia Place,-27.7587299,29.9154402
48572954,Anton Lembede Street,-29.8615892,31.0105637
777703718,Anton Menne Drive,-29.0738823,30.5965892
1105534226,Antonia Avenue,-29.8543922,30.7732034
47710675,Anyanisi Walk,-29.7193125,30.9331394
1117022114,Apex Drive,-29.4918747,31.2149429
43671629,Apex Place,-29.9314017,30.9374063
44460997,Aphula Place,-29.9968236,30.895532
87361233,Apiesdoring,-28.7513666,32.0579856
125859468,Apollo Avenue,-28.7573272,31.8876961
45669148,Apollo Road,-29.6357231,31.0461915
43671922,Apollo Street,-29.9277572,30.9338352
44100029,Appalachian Street,-29.8918806,30.873779
48190241,Appalsamy Place,-29.6376857,31.0525554
771630346,Appavoo Crescent,-29.5705189,30.4003632
87361230,Appelblaar,-28.7515339,32.0586603
44099950,Appennine Street,-29.890476,30.8718518
58515951,Apple Drive,-29.7752866,30.8676365
45445965,Apple Street,-29.6698008,31.0590849
142777075,Appledore Road,-30.8931289,30.3435882
45882783,Applewood Place,-29.6866233,31.0245059
45446625,Aquamarine Drive,-29.5817712,31.0850547
855390457,Aquaries Street,-28.5330256,29.8110453
98191785,Aquarius Avenue,-29.5590754,30.422179
135762388,Aquarius Close,-29.340145,31.266996
43672603,Aquarius Road,-29.9103914,30.9170387
135762389,Aquarius Street,-29.3405812,31.2671528
94078202,Aquila Avenue,-27.7162864,29.951498
45094543,Aquileia Avenue,-30.2130605,30.7855576
98645178,Arabian Drive,-29.5893328,30.4356218
45082577,Aralia Crescent,-29.9449259,30.9713327
44461076,Araucaria Place,-29.9971367,30.9105275
105532688,Araucaria Road,-30.1003651,30.8558662
1266321465,Aravalli Lane,-29.5453925,31.1886523
44013036,Arbee Drive,-29.5719891,31.1162213
43672181,Arbenhome Crescent,-29.9182111,30.8787242
43672190,Arbor Avenue,-29.9181131,30.8896772
44470224,Arbour Lane,-30.0510975,30.8781065
45094325,Arbour Road,-30.2391546,30.7830124
48667621,Arbuckle Road,-29.8285508,31.0261759
159327591,Arbuckle Street,-29.7394395,29.5151242
44470228,Arbuthnot Street,-30.0526282,30.8785745
167105279,Arcadia Crescent,-30.7410075,30.4279058
45471832,Arcadia Link,-29.7301345,31.0753773
48666951,Arcadia Road,-29.8385071,30.9938761
45880765,Arch Road,-29.7206597,31.0169025
45260276,Archary Road,-29.9112153,30.9864521
118923540,Archbell Crescent,-29.4759758,30.2149113
48782089,Archbell Road,-29.8772131,30.9813505
87322241,Archbell Street,-29.6014796,30.3829161
45880694,Archbridge Place,-29.7235107,31.0091621
48782126,Archer Crescent,-29.862801,30.9798537
71054304,Archibald Street,-28.9495037,31.7605047
51253816,Archie Gumede Drive,-29.6547887,30.377431
48572928,Archie Gumede Place,-29.8507151,31.0247059
44370659,Archie Gwillam Crescent,-29.8743187,30.9443416
45880532,Archstone Avenue,-29.7122576,30.9877408
45082580,Arcot Place,-29.9577865,30.9848726
46419388,Arctic Circle,-29.5161434,30.217061
44013035,Ardberg Avenue,-29.5796002,31.0882562
45881235,Ardford Place,-29.6923643,31.0033724
48610871,Ardrossan Road,-29.7765315,31.0217501
43671976,Arena Park Drive,-29.9167947,30.8775547
89561159,Arenga Loop,-28.7320825,32.040494
118841048,Ares Road,-29.6408909,30.3982137
1417210215,Argus Drive,-29.4579199,31.2350224
656362680,Argyle Drive,-30.8733913,30.3562709
808270299,Argyle Road,-30.9977812,30.263825
44103645,Argyll Road,-29.8430014,30.8639709
170710037,Argyll Street,-28.1496453,30.2368972
136289496,Ariel Drive,-29.3344198,31.2806457
94078157,Aries Avenue,-27.7118916,29.9442894
135763070,Aries Crescent,-29.3368186,31.26092
555009566,Aries Lane,-28.5341305,29.8096035
43672626,Aries Place,-29.9090426,30.9171672
46419392,Aries Road,-29.5160888,30.2196303
42644308,Ark Place,-29.8622678,30.8767147
45882638,Arkhaven Place,-29.6902904,31.0174923
44359020,Arkwest Place,-29.7828712,30.9595875
118809666,Arlington Crescent,-29.567254,30.3089003
44370400,Armadale Road,-29.8986089,30.9546175
39739668,Armagh Avenue,-29.8503052,30.961695
81962673,Armelino Crescent,-28.8289442,31.894964
43672163,Armenia Terrace,-29.9181983,30.8834414
67721225,Armitage Road,-29.5867513,30.3778377
125139779,Armoracia Angle,-28.7164191,32.0329503
119199487,Armstrong,-28.7471314,31.9046402
25403726,Armstrong Avenue,-29.7310027,31.0624978
118807315,Armstrong Drive,-29.5918176,30.3494106
45242213,Armstrong Road,-29.9017182,31.0310924
45880814,Arnclay Close,-29.7152092,31.0118309
42897005,Arndt Street,-29.8430266,30.8409872
44446273,Arne Crescent,-29.9200237,30.959252
45884474,Arnewood Place,-29.6821821,31.026272
45882334,Arnham Place,-29.6926983,30.984046
45082581,Arniston Place,-29.9445883,30.9736015
44470229,Arnold Hunt Road,-30.0918252,30.8527826
38110038,Arnold Road,-29.8192379,31.0013944
46695854,Arnott Street,-29.7970733,30.9406853
45668894,Arolla Place,-29.6552843,31.0165964
48667359,Arran Road,-29.8229615,31.0185834
69082350,Arron Road,-30.825671,30.4027936
42644739,Arrow Lane,-29.8710214,30.8997392
45880909,Artclay Place,-29.7140169,31.017334
44359078,Artdale Close,-29.7714588,30.9593161
118841044,Artemis Road,-29.63808,30.3979673
44358971,Artfield Place,-29.7763813,30.9499357
289149183,Arthur Hopewell Highway,-29.7988687,30.7754027
44470225,Arthur Howes Road,-30.0388323,30.8784532
862052962,Arthur Leslie Drive,-29.5050041,31.2010356
44370304,Arthur Place,-29.8801205,30.9363099
95556030,Arthur Road,-29.5522994,30.4163267
94821286,Arthur Street,-30.8522839,30.3533122
118745648,Arthur Thompson Road,-29.5952904,30.413413
44013037,Arum Avenue,-29.5824431,31.0979677
820910406,Arum Lane,-29.0298014,29.464711
198023661,Arum Lily Street,-28.738106,32.0530599
42897081,Arum Place,-29.8291706,30.8460134
45242214,Arum Road,-29.925405,30.9987771
771630348,Arunagiri Crescent,-29.5696316,30.4006205
228983346,Arundel,-29.2084025,29.9906384
48667530,Arundel Close,-29.8467941,31.02901
42644307,Arundel Place,-29.8733838,30.8971274
44370204,Arundel Road,-29.8803438,30.9391417
45669097,As-safa Way,-29.6482152,31.0632402
45669098,As-salaam Road,-29.6476961,31.0639186
667328815,Ascent Crescent,-29.7241646,30.5290495
44121390,Ascot Close,-29.782053,30.8813355
48667167,Ascot Street,-29.8484694,31.0184669
44370421,Ash Grove,-29.8954438,30.9553983
42897114,Ash Lane,-29.8213435,30.8483276
118696538,Ash Road,-29.5950908,30.3984727
45445430,Ash Way,-29.7150342,31.0695923
802407073,Asha Drive,-29.9406368,30.9079919
746661819,Ashbourne Grove,-29.5857804,30.3388256
45242215,Ashburton Road,-29.9019649,31.0325242
45471860,Ashby Close,-29.7291498,31.0792044
48667414,Ashby Road,-29.8199716,31.0081949
95614593,Ashby Street,-28.8812479,31.4786075
44359141,Ashcastle Place,-29.7681621,30.9489912
44003058,Ashfield Avenue,-29.8067491,31.0005334
48667203,Ashford Place,-29.8363059,31.0029995
190588362,Ashford Road,-30.5863831,30.5635326
44007163,Ashgate Road,-30.0318089,30.8928801
161771134,Ashlea's Amble,-28.9520944,29.2051155
48611359,Ashley Avenue,-29.7588398,31.0521142
18914167,Ashley Drive,-29.7908643,30.7811569
190559485,Ashley Place,-30.5599708,30.5811553
44470226,Ashley Road,-30.0869743,30.8503222
94731559,Ashmead Drive,-30.8814643,30.354554
98633385,Ashmore Road,-29.5561265,30.3584674
94329075,Ashoka Avenue,-28.5776478,29.7775091
43671652,Ashoka Place,-29.9262291,30.8914122
45884352,Ashpark Place,-29.6728606,31.0167393
706923719,Ashton Avenue,-29.5323738,30.3086288
108251286,Ashton Road,-31.0495438,30.2233385
44013034,Ashtree Avenue,-29.5593812,31.1131541
45880184,Ashvale Close,-29.7083157,30.9950632
45471652,Ashville Place,-29.7305412,31.0740459
38361926,Ashwell Road,-29.8573625,30.9720866
41571225,Ashwin Avenue,-29.8143332,30.8959928
45668815,Ashwood Close,-29.6569847,31.0025794
118758878,Ashwood Drive,-29.57658,30.4249258
44216183,Asibambe Place,-30.002809,30.8831236
48782182,Asidlecrest Way,-29.8553771,30.9774212
43025860,Asigcini Close,-29.8572852,30.9433244
44461042,Asihlenge Place,-29.9965105,30.8921676
44215522,Asijiki Road,-29.969507,30.9048303
44214427,Asikhulume Lane,-29.9576689,30.9037223
47710807,Asikhuthale Way,-29.716829,30.9332836
44099880,Asinamali Avenue,-29.8930293,30.847228
44426966,Asinamali Close,-29.9416942,30.9484881
43752011,Asiphile Avenue,-29.7813553,30.9110506
44461050,Asiphile Lane,-30.0057603,30.8867393
44461797,Asiphumi Place,-30.0077837,30.8870137
44216333,Asisebenze Close,-29.9543708,30.9103736
47710612,Asithuthuke Way,-29.7188319,30.9324836
438266543,Asiyingeni Lane,-29.7250862,30.9615469
44103458,Asizame Avenue,-29.8729545,30.8526738
438266542,Asizwane Way,-29.7255184,30.9615515
438266544,Asizwanga Road,-29.7256193,30.9610074
48782327,Askew Grove,-29.8681675,30.9869286
810379260,Asmal's Lane,-29.6453522,31.0478434
114201059,Asnika Crescent,-27.7609662,29.9109021
114201066,Asparagus Avenue,-27.7718139,29.8995381
89561154,Asparagus Fern Street,-28.7295797,32.0399372
118759618,Aspen Lane,-29.5719123,30.4254299
45668890,Aspen Link,-29.6584202,31.01575
43672161,Aspern Avenue,-29.9205358,30.8857733
89561171,Asplenium Grove,-28.7329804,32.0413742
114201060,Asplenium Street,-27.7738796,29.8971048
32458420,Assagay Crescent,-29.783481,30.7425285
121762561,Assagay Road,-29.7710211,30.7517068
45082584,Assegai Crescent,-29.9356949,30.9837784
89090871,Assegai Road,-29.6190705,30.4129384
45242216,Assembly Road,-29.9208964,30.9980258
87322194,Assurance Street,-29.5986153,30.3787599
88425952,Aster Crescent,-28.5871866,29.794966
48403286,Aster Drive,-29.644175,31.01634
38160269,Aster Place,-29.8224771,30.9965301
45445792,Aster Road,-29.6681652,31.0498899
44013025,Aster Terrace,-29.5853043,31.1010467
432560138,Asteria Road,-30.1157124,30.8431239
43672550,Asteroid Avenue,-29.908321,30.9068379
44099661,Astor Close,-29.9144554,30.8402144
61480657,Astor Road,-30.7990945,30.4121345
44370226,Astoria Road,-29.8995083,30.9369335
796600848,Astral Crescent,-29.742847,31.0697661
43671955,Astral Drive,-29.9058596,30.90111
432560137,Athena Road,-30.1170389,30.8448176
44446274,Atherstone Place,-29.9267476,30.9621736
182426952,Athlone,-29.2089196,29.992041
46441906,Athlone Avenue,-29.4865752,30.2226326
48667657,Athlone Drive,-29.8139366,31.0385669
44461829,Athlone Place,-30.0172785,30.9199057
48610809,Athlone Road,-29.7834829,31.0258746
46448691,Athlone Street,-29.4861066,30.2238858
44470232,Athol Paton Drive,-30.0438372,30.8854759
54057415,Athol Road,-30.6647433,30.510903
45242218,Atholl Crescent,-29.9175769,31.003286
45883087,Atholpark Place,-29.6752433,31.0182633
44102704,Atlantic Crescent,-29.8647762,30.8143386
44099978,Atlas Street,-29.8912473,30.8703405
590528109,Atlens Terrace,-30.0678525,30.8740205
48610836,Atterbury Road,-29.7939827,31.0195558
41571186,Attercliffe Road,-29.8321813,30.9219412
124211154,Atwell Road,-29.5988093,30.3477204
55881394,Auben Road,-30.7214886,30.4588696
48611181,Aubrey Drive,-29.761618,31.060109
42897154,Aubrey Road,-29.8136361,30.8438302
118729444,Auburn Place,-29.636905,30.4268295
48391611,Auckland Place,-29.7892694,31.016946
45471861,Audley Close,-29.7282255,31.0769493
48667272,Audley Gardens,-29.8291312,31.0067535
41571151,Audley Road,-29.8290444,30.9077353
417433499,Audrey Crescent,-29.5061202,31.2008422
87439258,Augusta Road,-29.5587648,30.3863416
180436857,Augusta Street,-28.7711224,32.1004894
860944385,Ault Road,-30.9119402,30.3234113
39344957,Aum Road,-29.865565,30.9583037
78623578,Auriga Street,-27.7738544,29.9133882
125859308,Aurora Crescent,-28.7663238,31.8904461
533117817,Aurora Drive,-29.7252882,31.0694284
95553217,Aurora Place,-29.5419747,30.4028108
45242219,Aurora Road,-29.9268124,31.0003144
45669143,Austen Avenue,-29.6407109,31.0380372
45082585,Austerville Drive,-29.9393571,30.9806807
42897072,Austin Place,-29.8310525,30.8404818
45445428,Autumn Drive,-29.7183367,31.0718461
42644310,Autumn Grove,-29.8908068,30.9186289
43672590,Autumn Place,-29.9167853,30.9171475
45882897,Autumnpark Avenue,-29.6774633,31.0151911
87265625,Ava Lane,-28.545968,29.7766076
45881408,Avalen Crescent,-29.699462,30.9964304
44004268,Avenger Road,-29.5422479,31.1324056
45882885,Avenpalm Gardens,-29.6796363,31.0230121
42897520,Avent Road,-29.821191,30.8829175
193666044,Aventurine Way,-29.5568233,30.4241753
48015135,Avenue Road,-27.5807344,31.2875839
38139091,Avis Road,-29.8243381,30.9833644
43672488,Aviswood Road,-29.919773,30.9060709
43886827,Avoca Hills Drive,-29.7531689,31.001381
48391688,Avoca Road,-29.7666897,31.0141843
43886877,Avocado Grove,-29.7594639,31.0058036
98645139,Avocado Place,-29.5823619,30.4245872
45445794,Avocadopear Street,-29.6683638,31.0601112
124710209,Avokado Kroon,-28.7643148,32.057054
48610773,Avon Crescent,-29.799322,31.0324705
41571304,Avon Drive,-29.8241127,30.914746
42897279,Avon Place,-29.8238328,30.8943362
459396933,Avon Road,-30.9288215,30.3074365
8795092,Avondale Drive,-29.5376877,31.2092048
48666943,Avondale Road,-29.8370288,31.0143914
45881263,Avonford Crescent,-29.69713,31.0056109
420331101,Avonlee,-29.7357343,31.0599187
45882686,Avonside Place,-29.6876872,31.0101323
42897720,Avonwold Drive,-29.8233355,30.9060793
45094571,Axbridge Place,-30.2204989,30.7941974
44370264,Axelsen Place,-29.8926788,30.9301882
43982441,Ayanda Mashiya Lane,-29.9914516,30.8136503
45095157,Ayesha Avenue,-29.7928524,30.9729863
209308455,Aylen Street,-28.7438473,31.8940455
41571340,Aylesbury Avenue,-29.8110887,30.9262424
777117324,Aylesford Avenue,-29.3501757,31.2928163
176328929,Ayliff Road,-30.5458831,29.4439086
43718204,Ayliff Street,-27.7554331,29.9377503
118936114,Ayliffe Road,-29.6033973,30.3207764
46695834,Aylsham Close,-29.8106416,30.9536724
171642190,Ayob Street,-28.1584566,30.2488247
48782272,Ayott Avenue,-29.8718988,30.9908245
797845729,Ayr Avenue,-31.0242736,30.2364497
44121386,Ayr Close,-29.7792937,30.873188
48610994,Ayr Road,-29.7886243,31.0262065
123650872,Ayres Lane,-29.4738563,30.2533041
118987366,Ayrshire Drive,-29.6409656,30.4174062
38142306,Aysgarth Avenue,-29.8300253,30.9647632
44370597,Ayton Road,-29.9017317,30.9719928
44013022,Azad Avenue,-29.5779406,31.087294
45669099,Azad Lane,-29.6491029,31.0534217
98191827,Azad Road,-29.5594091,30.4123734
700949177,Azalea Crescent,-30.2081265,30.7472835
88425933,Azalea Drive,-28.5903603,29.7964212
39725081,Azalea Gardens,-29.8506998,30.9568042
96065112,Azalea Lane,-29.5749693,30.2928625
758806981,Azalea Park,-29.7910154,30.8731742
44461085,Azalea Place,-29.9858821,30.9145014
42897058,Azalea Road,-29.8360569,30.8418062
94821312,Azalea Street,-30.8416646,30.3673777
59837873,Azalea Terrace,-29.4506448,31.2188418
863482703,Azalia Avenue,-28.9572276,31.7464842
116595196,Azalia Road,-29.5144814,30.2158051
39317637,Azalia Street,-27.7798934,30.8082234
181256184,Azania Circle,-29.3624423,30.6335418
119912705,Azelia Place,-27.7647319,29.9128037
193672330,Azurite Place,-29.5508476,30.4286635
185126370,B Gumede Street,-30.2658967,29.9341429
44215517,B. Khumalo Drive,-29.9396057,30.9183457
193108124,B6,-29.6404029,30.338264
185126364,BJ Magojo Street,-30.2681161,29.9391035
47712254,Baba Hlengwa Place,-29.6961551,30.9673108
44452066,Baba Nene Avenue,-30.0336646,30.8606125
44215387,Babakhulu Avenue,-29.9568237,30.9019202
48392990,Babanani Road,-29.5560852,31.1195556
442910962,Babu Bodasing Avenue,-29.3365399,31.3689542
114201064,Baccarat Street,-27.7677113,29.9188339
125139752,Bacopa Bend,-28.7159766,32.0332023
45260279,Bacus Road,-29.9124056,30.9795879
43751898,Badedele Place,-29.7809731,30.9006017
42644309,Baden Powell Drive,-29.8648069,30.8944261
802442216,Baden Powell Place,-29.8665253,30.8936774
972942910,Baden Powell Road,-30.9763176,30.268882
41571199,Baden Road,-29.8450653,30.9269475
45242221,Badenhas Place,-29.8983243,31.0252267
209311674,Badenhorst Street,-28.7511789,31.8837445
45242222,Badenhort Road,-29.9085952,31.0243916
771599375,Badger Bend,-28.739233,32.0476274
37959861,Badger Lane,-29.865441,31.0066731
420331107,Badgworth Close,-29.7357385,31.0585648
87439400,Badrudeen Road,-29.563563,30.396025
45082586,Badulla Drive,-29.9550695,30.9797636
43982486,Badumile Nhlangulela Street,-29.9946845,30.8175241
858807031,Bafana Makhoba Street,-29.9935046,30.8199217
44004267,Bagman Street,-29.5400136,31.143947
107915346,Bahama Avenue,-30.2956188,30.7459712
707195248,Bahambra Way,-29.5614268,30.3884853
438367665,Bahi Place,-29.6551016,30.3513775
43025907,Bahleke Way,-29.8532559,30.9424145
98191720,Baijoo Road,-29.5627129,30.4084035
58516227,Baildon Drive,-29.7409943,30.8329928
44470678,Bailey Lane,-30.0772061,30.8694525
44461082,Bailey Road,-30.0146541,30.9191442
45880702,Baileybridge Place,-29.7202333,31.0154086
48782140,Baines Road,-29.8736184,30.9813919
167796731,Bairn Street,-30.8403556,30.3922751
42897219,Baker Road,-29.8453875,30.8835887
42644311,Baker Street,-29.8946801,30.9176588
122027641,Bakewell Road,-29.6488724,30.3699596
47998540,Bakhaliphi Road,-29.8063545,30.6205242
438259546,Bakwethu Road,-29.7269511,30.9692937
176324392,Bala Lane,-30.5454526,29.4372104
112571914,Balance Street,-30.5704749,29.8912956
863488492,Balcomb Avenue,-28.9422191,31.7666245
135766016,Balcomb Street,-29.3421681,31.2949961
94093452,Baldwin Place,-27.7311523,29.9366915
44446275,Bale Avenue,-29.9211819,30.9535649
118710729,Bale Street,-29.6099676,30.3645364
195405228,Balemhlanga,-26.9037577,32.2351618
45884378,Balepalm Close,-29.6701238,31.024199
39724404,Balesar Place,-29.8438644,30.9686479
48396239,Balfour Lane,-29.6628356,31.0417146
42897302,Balfour Road,-29.8265528,30.8832222
45669084,Balgobind Place,-29.6581018,31.05018
46419380,Balgowan Road,-29.3734244,30.0799386
48610923,Balgownie Crescent,-29.7833962,31.0440941
48666952,Ballance Road,-29.8292004,31.0259752
45082589,Ballantrae Road,-29.9455981,30.9582603
44370396,Ballarat Road,-29.9000552,30.9549897
42644313,Ballard Road,-29.8756029,30.8887361
48573109,Ballard Street,-29.8704579,31.0467588
45082590,Ballerina Terrace,-29.9432284,30.9927935
8380129,Ballito Drive,-29.5335481,31.209812
44461083,Bally Road,-29.9791033,30.928789
182430003,Ballyntyne Avenue,-29.2056248,30.0030039
42897719,Balmoral Drive,-29.8228138,30.8969604
88425939,Balsam Avenue,-28.59138,29.7974162
118987349,Balsam Place,-29.6450205,30.427351
120073419,Balsam Street,-28.9870642,29.8623372
44461081,Baltex Avenue,-29.9849932,30.9311107
37959862,Baltic Lane,-29.8635398,31.0073229
45082587,Baltimore Road,-29.9357721,30.983602
44461014,Baluleka Close,-30.0006392,30.8919383
44215233,Balungile Grove,-29.9948645,30.8834525
457984511,Bam Road,-30.8056041,30.3242649
44216241,Bambakahle Street,-30.0049956,30.8789413
47711223,Bambanani Road,-29.713624,30.9567628
43025804,Bambanani Street,-29.859298,30.9434907
850912733,Bambata Road,-29.6393355,30.3270463
43751857,Bambezakhe Hadebe Close,-29.7864236,30.8994135
819116140,Bambisisa Lane,-29.9552874,30.9069372
44216249,Bambisisa Place,-30.006274,30.8776375
857163481,Bambiswano Place,-29.859083,30.9426112
403490869,Bamboo Avenue,-29.0063667,29.8507987
53293574,Bamboo Brook Street,-28.7489118,32.061482
24870302,Bamboo Lane,-29.818771,30.8625314
44069821,Bamboo Place,-30.0669782,30.8368174
94352185,Bamboo Road,-28.5978833,29.8121463
45884366,Bamboopalm Road,-29.6727421,31.022242
44215531,Banana Drive,-29.9471398,30.917412
48610661,Banana Grove,-29.8029716,31.0151618
44215532,Banana Lane,-29.9698175,30.8623265
43887070,Banana Place,-29.7579198,30.9952323
44215524,Banana Road,-29.9810828,30.8984063
45445834,Banana Street,-29.6699964,31.0577349
43887014,Banana Way,-29.7658107,30.9939444
44359117,Bananarich Grove,-29.7718631,30.9443991
48391639,Banbury Road,-29.787079,31.0177107
45880891,Bancroft Place,-29.7073518,31.0128165
47711867,Banda Way,-29.7097846,30.9666437
44215214,Bandlalakhe Lane,-29.9565565,30.9008837
45881203,Bandside Close,-29.6844704,31.0054279
48667408,Banfield Crescent,-29.8195104,31.0060196
87439247,Bangalore Road,-29.5670464,30.4030912
43672230,Bangalory Place,-29.9138611,30.8752316
42897435,Bangay Road,-29.8259106,30.8675342
38110021,Bangor Place,-29.8180983,31.0036279
240874267,Bank Road,-28.999614,29.8534359
72855282,Bank Street,-30.8554381,30.3728149
48782113,Bank Terrace,-29.86563,30.9800063
45882514,Bankford Grove,-29.6994195,31.0107698
45881058,Bankgreen Place,-29.7240313,31.032648
44370246,Bankhead Road,-29.8883381,30.9370523
39739637,Bankie Crescent,-29.8533414,30.960409
171708952,Banks Avenue,-28.0129667,30.0525587
98645149,Banksia Place,-29.5840167,30.4229531
48573029,Banner Lane,-29.8607042,31.0233001
214108626,Bannerman Path,-29.2693976,29.4929091
226863707,Bannerman's Pass,-29.2528788,29.4339138
43752142,Banqobi Way,-29.761,30.9031289
37959863,Banshee Lane,-29.8639706,31.0050956
44103569,Bantu Place,-29.8555632,30.8607386
437335188,Bantwana Road,-28.6257398,29.8825643
95553262,Banyan Crescent,-29.5433265,30.4086779
44461084,Banyan Place,-29.9995424,30.9173336
58986992,Baobab Crescent,-29.504316,31.2262479
118758893,Baobab Terrace,-29.5735312,30.4244169
48611297,Baobab Way,-29.752906,31.0460296
44215508,Baphelabantu Street,-29.964363,30.9003942
756671161,Baqedile Place,-29.8564968,30.9430796
44461090,Baracuda Drive,-29.9898429,30.9459459
791333834,Barbados Crescent,-31.0762635,30.1989212
107915323,Barbara Avenue,-30.2958223,30.7472707
148525905,Barbara Place,-29.6424929,30.3804799
42644316,Barberton Place,-29.8775571,30.901124
19528485,Barbet Avenue,-29.7894698,30.7916173
198022766,Barbet Bow Street,-28.7379055,32.0760033
299858772,Barbet Close,-30.3843657,30.6765552
327200243,Barbet Loop,-28.4715028,29.9863934
167561812,Barbet Place,-30.7077648,30.4731367
44664603,Barbet Road,-29.9223001,30.9402332
48782214,Barbinycrest Way,-29.8561028,30.9747104
44359195,Barcelona Close,-29.76342,30.9642805
42644746,Barcelona Way,-29.8835947,30.9256102
176311495,Barclay Street,-30.5507908,29.4203833
45095163,Barcombe Place,-29.7890664,30.9837317
46695824,Bardia Avenue,-29.8063682,30.9396926
44370590,Bardsley Road,-29.9027975,30.9727709
45095149,Barfield Place,-29.7897378,30.9807713
120073514,Barfield Road,-29.0120226,29.8790446
45882655,Barford Place,-29.6941227,31.0121162
45095150,Bargreen Place,-29.7903016,30.9807287
41571118,Barham Road,-29.8325468,30.9524016
193666071,Barite Place,-29.5500723,30.4317379
45882436,Barkbrook Road,-29.687405,30.9988757
44370624,Barker Place,-29.8897531,30.9652264
176311492,Barker Street,-30.5514659,29.4252709
45880530,Barkfern Road,-29.7126981,30.9846732
45881312,Barkham Road,-29.7021191,30.984082
89265007,Barkley Place,-29.6308821,30.3953496
46595926,Barland Road,-29.5206618,30.0977611
123650868,Barn Lane,-29.4728406,30.2510319
41571007,Barn Place,-29.8408707,30.941802
87439491,Barnabas Road,-29.5671082,30.4014532
754382579,Barnard Road,-29.8427267,30.9782826
48667226,Barnett Avenue,-29.8372465,30.9937484
48667227,Barnett Road,-29.8371895,30.9931954
45880468,Barney Mlokoane Walk,-29.7323063,31.0153548
38160328,Barns Road,-29.8350934,30.9821199
39724181,Barnsley Grove,-29.8436364,30.9734617
67918500,Barnsley Road,-29.6272396,30.3716833
459383213,Barnstable Road,-30.9211316,30.309615
45082588,Baroda Road,-29.9506299,30.9717108
38178365,Baron Grove,-29.8417346,30.9870989
651548745,Baron Lane,-29.4328683,31.2501959
46258914,Baron Street,-29.5203339,30.2460748
44359049,Barondale Road,-29.772188,30.9601147
87256885,Barrack Road,-28.5549951,29.7599522
45082592,Barrackpur Road,-29.9456115,30.9638132
457984500,Barracouda Avenue,-31.0159991,30.2465496
41947737,Barracouta Bend,-30.3706158,30.7008279
180401379,Barracuda Bar,-28.7850886,32.0916224
190556434,Barracuda Boulevard,-30.5747556,30.5754298
44359237,Barracuda Close,-29.7670963,30.9795818
44359238,Barracuda Road,-29.7684484,30.9819247
48408217,Barracuda Street,-29.6061509,31.157881
1446357680,Barred Lane,-29.4709894,30.2411898
58521948,Barrier Drive,-29.4878856,31.2515003
45260284,Barrier Lane,-29.9260355,30.9735109
627366693,Barrington Lane,-29.5167027,31.2179554
125139775,Barringtonia,-28.7168888,32.0352537
32446654,Barron Road,-29.7686617,30.7618026
45094629,Barrow Street,-30.2053151,30.7981517
45446330,Barrs Flat Road,-29.6443323,31.0571104
44370561,Barry Grove,-29.8948056,30.9633056
65662430,Barry Kramer Avenue,-28.9399146,31.7654045
118807307,Barry Road,-29.59228,30.3492825
48611364,Barry Walk,-29.7561007,31.0512069
45882681,Barthaven Place,-29.6877031,31.0134424
20099529,Bartle Road,-29.7975042,30.7956262
42897366,Bartlett Road,-29.8347487,30.8671524
265065697,Barton Lane,-30.8525234,30.3762149
126126145,Barton Place,-29.8055362,30.9756676
265065699,Barton Road,-30.8508914,30.3785598
45095151,Barvale Drive,-29.7891754,30.9782747
48391659,Barwood Place,-29.7774184,31.013512
193666075,Basalt Crescent,-29.5548524,30.4230035
45619720,Basela Link,-29.7351639,31.0460383
44461091,Bashiro Place,-29.9850053,30.9246227
45082649,Basil February Road,-29.949367,30.9727408
59448879,Basil Hulett Drive,-29.5007236,31.236909
45082593,Basil Place,-29.9344579,30.9852082
126506016,Basil Street,-30.9162109,30.3240356
45669117,Basin Place,-29.6304809,31.0468842
44359200,Bass Place,-29.7653744,30.9700075
92032945,Bass Road,-30.8859861,30.3488957
42644317,Bassa Crescent,-29.8971961,30.904084
265065733,Basset Place,-30.8457684,30.3702859
19782982,Basset Street,-29.7259085,30.5372279
45446220,Bat Road,-29.6615391,31.0553862
118665444,Baterman Lane,-29.5973005,30.3835561
860566556,Bates Road,-30.7561408,30.4272768
44370392,Bath Avenue,-29.8976054,30.9379793
42897601,Bath Road,-29.8090384,30.8588422
44452057,Batha Sibisi Way,-30.0282131,30.8579865
52083939,Bathakathi Street,-27.7801786,30.8284052
44446280,Bathgate Road,-29.9141558,30.9683491
44216002,Bathule Place,-29.9558705,30.8924308
44446282,Bathurst Road,-29.9287258,30.9608075
48667410,Baton Road,-29.8197644,31.0088406
45881149,Batonmore Crescent,-29.6954524,31.0262536
54613859,Batstones Drift,-30.7156459,30.4414455
46695843,Battersea Avenue,-29.7992016,30.9411638
42644314,Battersea Road,-29.880808,30.9128626
198025210,Battery Bank,-28.7505506,32.0213297
44107254,Battery Beach Road,-29.8312365,31.0302785
48610905,Battery Lane,-29.7786754,31.0478339
87256894,Battery Road,-28.5586549,29.7684709
327200246,Battlefields Road,-28.4418199,29.9893585
45242220,Baudry Road,-29.9201372,31.0198889
852383705,Baughinia Lane,-29.5685045,30.3359073
44461089,Bauhenia Crescent,-29.9987658,30.9114081
778003876,Bauhinia Avenue,-30.8429122,30.3667045
87361219,Bauhinia Bend,-28.7485254,32.0604359
48611272,Bauhinia Drive,-29.7543445,31.0329879
117071696,Bauhinia Road,-28.7626219,31.9034055
48667076,Baumann Lane,-29.8474671,30.9928976
42644315,Baumann Road,-29.8915487,30.9072741
864110599,Bauxite Bay Road,-28.752257,32.0205672
125213007,Baverstock Street,-29.6095328,30.3677019
94101336,Baviaan Avenue,-27.7264672,29.972615
48391643,Bawden Place,-29.7883773,31.0185626
44359240,Bawka Place,-29.765617,30.9806956
94084552,Baxter Avenue,-27.7263078,29.9382314
48782402,Baxter Place,-29.8609107,31.0045944
48572948,Bay Passage,-29.8600671,31.0227758
54750133,Bay Road,-30.8236704,30.401758
48573076,Bay Terrace,-29.8609817,31.0335221
58516136,Baya Road,-29.7564965,30.8153585
44461061,Bayajabula Close,-29.9975482,30.8890033
98191670,Bayat Road,-29.5595197,30.4157876
43672481,Bayberry Grove,-29.9231705,30.9125716
437313672,Bayede Street,-28.6234501,29.9062472
47711038,Bayeza Road,-29.7183956,30.9433928
45266318,Bayhead Road,-29.904814,31.010095
858445245,Baylis Place,-29.8762621,30.8442973
44370445,Bayswater Road,-29.8922737,30.9411284
45242223,Bayview Road,-29.9181671,30.9998806
81925006,Bayview Terrace,-28.8232367,31.8921565
38143843,Bazley Avenue,-29.8302894,30.9822113
54750153,Bazley Street,-30.7423148,30.4511953
486975068,Beach Access,-29.5215696,31.2267134
108251332,Beach Avenue,-31.0508262,30.2282529
1359419884,Beach Drive,-29.4695801,31.2606802
379541866,Beach Estate Road,-29.5495557,31.2070432
59595511,Beach Front Road,-30.6954573,30.4934124
48572952,Beach Grove,-29.8612492,31.0199916
27453181,Beach Road,-28.3628479,32.4255744
382182473,Beach View Grove,-30.901504,30.3330798
48573069,Beach Walk,-29.8601515,31.0262228
777708805,Beachcroft Avenue,-29.5106698,31.2192919
48610924,Beachway,-29.7785813,31.0456828
566167011,Beachwood Foot Path,-29.7796769,31.0483087
48611130,Beachwood Place,-29.781864,31.0507732
245831408,Beachwood Road,-29.5502241,31.1993864
436615455,Beacon Avenue,-29.5703826,30.439505
436615451,Beacon Hill Country Estate,-29.5716145,30.4367776
42897525,Beacon Place,-29.8267725,30.8750448
45242225,Beacon Road,-29.9129425,31.0131164
746880508,Beacon Trail,-29.7680192,30.8467306
212692168,Beacon View Trail,-28.8762446,30.0318369
327200250,Beacon Viewpoint,-28.5283958,29.9847859
1351880364,Beacon trail,-29.7707725,30.8409519
1211011432,BeaconHill North East MTB and Hiking Trail,-29.4722202,30.2160368
41571108,Beaconsfield Road,-29.8121103,30.9234395
81151731,Beaconsfield Street,-28.1564528,30.2411363
42644318,Bealings Road,-29.8654577,30.8829059
45445848,Bean Road,-29.665325,31.0497629
45445942,Bear Road,-29.6644527,31.0558099
119892659,Beardall Street,-27.7687342,29.9346933
42897663,Beare Drive,-29.7971042,30.8586865
89561186,Bears Foot Street,-28.7269652,32.0407684
136284425,Beatrice Street,-29.3229958,31.291277
791538899,Beatty Drive,-30.952657,30.2911828
791538898,Beatty Gardens,-30.9495878,30.2929589
84568353,Beatty Place,-29.858166,31.0391955
94821346,Beatty Road,-30.846808,30.3585412
108260857,Beaulieu,-29.874687,30.267285
28538056,Beaumont Avenue,-30.8386477,30.3922418
382182472,Beaumont Drive,-30.9027397,30.3343069
44461088,Beaumont Road,-29.9942863,30.9445605
45082591,Beaunoir Avenue,-29.9383028,30.9862414
48408151,Beaute Avenue,-29.6381376,31.1316708
283777420,Beaver Lane,-29.4292042,31.2514552
48610947,Beckenham Place,-29.7944525,31.035074
148650176,Becker Street,-30.8613896,30.3534423
45880592,Beckstone Place,-29.7079531,30.9844026
92036546,Beckwith Road,-29.6152834,30.4349838
42644319,Becton Drive,-29.8847954,30.9117297
42644320,Bedale Road,-29.8762036,30.926308
44370318,Bedford Avenue,-29.8825515,30.9530861
48782326,Bedford Gardens,-29.8692539,30.9887682
42897508,Bedford Road,-29.8296443,30.8887287
804096995,Bee Eater Drive,-29.4773177,31.2443578
89561157,Beech Fern Street,-28.7246939,32.0402353
48611258,Beech Road,-29.7526332,31.0382601
45242226,Beechcroft Avenue,-29.9019331,31.0220806
44003090,Beechfield Crescent,-29.803879,31.0015117
44007164,Beechgate Crescent,-30.0251326,30.8884162
18483751,Beechwood Road,-29.7965752,30.8063189
41946754,Beefwood Road,-30.3810129,30.69471
48391742,Beekhary Road,-29.7654759,31.0176612
43672589,Beetle Road,-29.9160462,30.9170848
94084515,Begonia Avenue,-27.7192365,29.9352276
198023645,Begonia Brim,-28.7379058,32.0523182
165345233,Begonia Crescent,-27.7810857,30.8057144
44099619,Begonia Drive,-29.9121339,30.8388808
41571279,Begonia Place,-29.8190852,30.8930178
48611268,Begonia Road,-29.759148,31.0343313
170710036,Begonia Street,-28.1471486,30.23263
44446283,Behr Place,-29.9202977,30.9643626
118657508,Behrens Alley,-29.5970442,30.3799671
667017526,Beit Road,-30.9814,30.265716
44215516,Bekezela Avenue,-29.9492259,30.8614543
44215523,Bekezela Drive,-29.9551308,30.9192797
124907260,Bekezela Grove,-29.7277238,30.9627184
179338330,Bekezela Street,-28.1986273,30.1666961
118695462,Bekker Place,-29.59563,30.3916402
42644322,Beldon Drive,-29.8869308,30.9173579
118729443,Belevista Road,-29.6354859,30.4296868
45266893,Belfast Road,-29.8900799,30.9978946
95560235,Belfort Road,-29.5498839,30.3851275
48611055,Belgrave Crescent,-29.7785236,31.0363908
121771075,Bell Close,-29.7688766,30.7772486
757447579,Bell Grove,-29.8533347,31.0016586
44470241,Bell Place,-30.0896757,30.8617538
167499808,Bell Road,-30.6795948,30.503534
46258907,Bell Street,-29.4853259,30.2297716
44099312,Bell Tower Road,-29.8826598,30.8116132
351675481,Bell Traverse,-28.938624,29.1247056
52086657,Bella Street,-27.7747027,30.8247393
43672176,Belladona Avenue,-29.9171293,30.8764781
534068534,Belladonna Road,-29.6765263,31.0437937
46276336,Bellamont Road,-29.6603687,31.1210386
45882944,Bellbrook Close,-29.6812914,31.004058
223922219,Belle Isle,-30.959839,30.2945284
48610767,Bellengere Drive,-29.7963635,31.0358273
48667007,Bellevue Road,-29.8487242,30.9962616
118761541,Bellewan Road,-29.5924237,30.3565932
45880587,Bellfern Place,-29.7111947,30.9834878
48391660,Bellhaven Road,-29.7796466,31.0196136
44370367,Bellmuir Place,-29.8937927,30.9466678
43672725,Bellona Grove,-29.9307457,30.9425807
48667441,Bells Avenue,-29.8229948,31.0241198
45882698,Bellside Place,-29.6865243,31.0046874
58516516,Bellville,-29.8035933,30.8145678
42644323,Bellville Road,-29.8776761,30.9245236
812515243,Belmac Place,-30.8766776,30.3572663
459386312,Belmar Crescent,-30.9254776,30.312589
87439566,Belmont Crescent,-29.5548896,30.4036579
45471632,Belmont Gardens,-29.7523335,31.0659128
48391651,Belmont Road,-29.7770034,31.0140171
706923724,Belmont Street,-29.5373335,30.3095838
42897278,Belvedale Road,-29.8254604,30.8932528
44013028,Belvedere Drive,-29.5801059,31.0863376
41570960,Belvedere Place,-29.8255162,30.9483491
48611094,Belvedere Road,-29.7744416,31.0278208
48667204,Bemersyde Road,-29.8279367,31.0076153
44215519,Ben Makhaye Avenue,-29.9625453,30.8829536
47712241,Ben Mgobhozi Close,-29.6961027,30.9778909
44215289,Ben Mkhize Circle,-29.9520203,30.9017009
48391648,Ben Nevis Road,-29.7786859,31.0220547
88390520,Ben Schoeman Street,-28.5376874,29.7906991
43751848,Ben Zwane Way,-29.7831946,30.8979165
863745145,Benamile Road,-28.7769875,31.8607971
48082755,Benares Road,-29.7539897,30.7498275
88425930,Benares Street,-28.5852082,29.7918961
223922223,Benbow Avenue,-30.9645047,30.289573
48610795,Benbow Road,-29.7807471,31.0256793
44102918,Bend Place,-29.8620887,30.8292797
167561813,Bend Road,-30.7071859,30.4712635
43756421,Bend Street,-29.789033,30.9139775
60753072,Bendigo Road,-30.6652308,30.4877409
136284420,Benedict Circle,-29.3249353,31.2896674
87439413,Benetta Crescent,-29.557671,30.4052063
43672196,Benevolent Street,-29.9193315,30.8853077
44358980,Benfield Place,-29.7751917,30.9501131
45260287,Bengal Lane,-29.9168095,30.9848474
88425919,Bengal Road,-28.5786021,29.7830293
46695766,Benghazi Crescent,-29.8052084,30.9359378
45884421,Bengrove Place,-29.6982841,31.0269378
374245018,Benham Road,-29.8759507,30.9606082
58516148,Beni Road,-29.7440963,30.8122247
48572975,Beningfield Lane,-29.8625871,31.0178259
859979823,Benjamin Drive,-30.6886442,30.4910046
45242227,Benjamin Road,-29.8968307,31.0265973
108260877,Benjamin Street,-29.8729458,30.2731413
371324753,Benjane Street,-28.4307705,32.1450446
44446284,Benn Grove,-29.9140447,30.9670253
56186630,Bennet Place,-30.7121408,30.4793247
92036534,Bennett Avenue,-29.6162299,30.4348587
260957549,Bennett Street,-28.8841736,31.4660602
45082596,Bennie Geldenhuis Road,-29.9469922,30.9810144
98191751,Benny Road,-29.5603694,30.4139441
89505354,Bense Road,-29.5298141,30.2506651
48667457,Benson Place,-29.8217671,31.021698
44446285,Benson Road,-29.9149798,30.9708754
45082595,Bentick Place,-29.9441987,30.9772372
193666061,Bentley Road,-29.5514134,30.4353603
48667111,Bentley Street,-29.8562796,31.0067416
44470240,Benton Place,-30.0794454,30.8536094
171709952,Benville 1 Street,-28.175423,30.1646328
171709946,Benville 2 Street,-28.1758695,30.1641429
171709947,Benville 3 Street,-28.1763229,30.1636243
43751995,Benyezela Walk,-29.7735,30.9037126
43982381,Benzelani Place,-29.9916067,30.8215793
71235934,Berea,-28.5561102,29.7767761
56016069,Berea Crescent,-30.7324884,30.4501346
48667084,Berea Park Road,-29.8423114,30.9989601
46441881,Berea Road,-29.4909613,30.2269888
105747227,Berea Way,-28.7326073,29.3500249
856787541,Berea West Road,-29.8326631,30.9382611
45082598,Berg Place,-29.9359826,30.986546
42896971,Berg Road,-29.8363733,30.8896849
39353509,Berg Street,-27.7603556,30.7860675
45882457,Bergbrook Grove,-29.6856414,30.9987428
55904226,Bergen Road,-30.7565644,30.4359242
44358952,Bergfield Place,-29.7765068,30.9468021
45882633,Berghaven Road,-29.689198,31.0230279
44358851,Berghill Crescent,-29.7843509,30.9582841
45882983,Bergmanor Place,-29.6790745,31.0048306
165921411,Bergsig Avenue,-27.7304036,29.9213891
41571138,Bergtheill Place,-29.8324345,30.9248366
44121380,Bergthiel Street,-29.7816287,30.8797697
183717075,Bergview Drive,-28.8141768,29.541184
47496108,Bergview Road,-29.5524714,30.2867867
48611077,Berkeley Crescent,-29.7804423,31.0353825
45242230,Berken Road,-29.9105726,31.0265146
44121193,Berkshire Drive,-29.7964136,30.8792158
42644325,Berkshire Place,-29.8819952,30.9057797
58516184,Berlin Road,-29.7434834,30.8275891
94821361,Berman Road,-30.8585711,30.3555652
859617458,Bermuda Place,-30.5770527,30.5700105
94508053,Bermuda Way,-30.29781,30.7506962
42897657,Bernadette Drive,-29.804381,30.858049
44470245,Bernadotte Street,-30.0435178,30.8872932
42644327,Bernard Huss Road,-29.861012,30.8802801
44216127,Bernard Mjwara Place,-29.9733502,30.8938417
47712255,Bernard Mlotshwa Place,-29.696152,30.9659502
98191825,Bernard Road,-29.5673727,30.4127979
44370232,Bernard Shaw Road,-29.8980741,30.9296725
38178384,Berriedale Road,-29.8447352,30.9905275
44470244,Berrio Avenue,-30.0771629,30.8557301
89476244,Berry Hill Lane,-29.5651141,30.3009253
58516532,Berry Lane,-29.7696926,30.8692474
43672463,Berryfield Place,-29.9238316,30.900939
45880583,Berrystone Road,-29.7097718,30.9894409
120073520,Bert Webster Street,-29.0185038,29.8601773
44121220,Bertha Frame Gardens,-29.7968316,30.8649139
48572992,Bertha Mkhize Street,-29.8554971,31.0221546
87439440,Bertha Road,-29.5569283,30.3866145
136281105,Berthwell Drive,-29.3273787,31.288459
118759625,Bertia Palm Terrace,-29.5708752,30.4219432
44446286,Bertram Place,-29.9172321,30.9518889
48611112,Berwick Place,-29.780371,31.0446836
44370324,Berwyn Road,-29.8856963,30.9393692
44099891,Beryl Crescent,-29.8852389,30.846476
58516233,Beryldene Road,-29.7856694,30.8334164
89176319,Bester Road,-29.6216525,30.4164272
198025199,Betastraal Street,-28.7470819,32.0186531
166256457,Bethal Street,-27.7729548,29.9308309
44215518,Bethan Drive,-29.9602649,30.9152749
45880946,Bethcroft Place,-29.7079407,31.0186045
44359022,Betholwest Place,-29.7823623,30.9610145
98903858,Betty Farmsone,-30.1541999,30.063755
48611354,Betty Place,-29.7616165,31.0578964
45619701,Beulah Hill,-29.7292711,31.0512764
118877298,Bevdon Place,-29.4832531,30.212808
43672086,Bevel Place,-29.9078554,30.8580945
41570824,Beverley Drive,-29.8393015,30.9259016
45082594,Beverley Gardens,-29.957643,30.9768825
44358948,Beverley Hills Close,-29.7719166,30.9391105
44370390,Beverley Road,-29.8977992,30.9400387
476628721,Beverly Kinghorn Crescent,-30.119033,30.8416688
149721497,Beverly Lane,-29.5124519,31.219426
45883074,Beverpalm Grove,-29.6769619,31.0239167
42644326,Beves Crescent,-29.8573084,30.8858108
258928987,Bevis Crescent,-28.8768324,31.4714289
777032361,Bevis Place,-30.5485815,29.4229593
42897452,Beviss Road,-29.8195307,30.8695535
457961092,Bexhill Avenue,-31.0273672,30.2424331
44370627,Bexley Road,-29.8927972,30.96324
48782439,Bexmore Place,-29.8605784,30.9890399
625737730,Bezuidenhout's Pass,-28.5518211,29.2280477
41570898,Bg Nicholson Avenue,-29.8500837,30.9407877
44452156,Bhabha Mcanyana Lane,-30.0202139,30.8744091
44215391,Bhabha Road,-29.9693776,30.8673968
44461097,Bhagat Road,-29.9713011,30.9299107
43672206,Bhaktivedanta Swami Circle,-29.9102647,30.882436
48782198,Bhalacrest Way,-29.8566505,30.9761442
43025938,Bhalaville Grove,-29.8519566,30.945123
48058077,Bhalito Road,-29.7242468,30.8943165
67731759,Bhambatha Road,-29.5797857,30.40115
44215392,Bhambatha Street,-29.9809786,30.8567597
48391704,Bhamo Avenue,-29.766796,31.0209727
117083357,Bhanana Road,-28.7729485,31.8541141
48392973,Bhanganoma Road,-29.5590006,31.1225772
47712659,Bhanganonwa Mkhize Walk,-29.6949849,30.9653933
52086580,Bhanya Street,-27.7863144,30.8224366
44452083,Bhapa Bhengu Drive,-30.0315395,30.868711
44215394,Bhaqa Lane,-29.9640324,30.8469199
44215402,Bhaqa Road,-29.9708424,30.8844143
44215397,Bhasini Road,-29.9474704,30.8633036
171708977,Bhawani Street,-28.0188144,30.0588293
44215411,Bhawuza Place,-29.9653881,30.8620649
44103488,Bhayi Mseleku Crescent,-29.8755386,30.8662205
194678270,Bhayi Street,-27.7668053,30.0097165
44102811,Bhejane Close,-29.8780221,30.8379898
437988890,Bhejane Place,-29.7343788,30.9372157
45880257,Bhejane Road,-29.7386865,30.9795826
45880506,Bhejane Street,-29.7272528,30.9884763
43982496,Bheka Gumede Road,-29.9929693,30.8107841
44103442,Bheka Road,-29.8790517,30.8509762
800930357,Bheka Three Lane,-29.8605567,30.9410426
47712162,Bhekabaku Lane,-29.7109224,30.9711975
48393012,Bhekamanzi Terrace,-29.5418996,31.131176
44215403,Bhekani Dlamini Drive,-29.9559063,30.9119835
44215401,Bhekani Drive,-29.9550504,30.9131542
43752383,Bhekani Mtshali Lane,-29.766798,30.9184245
697316253,Bhekani Three Way,-29.8606231,30.9396004
185126351,Bheki Dzanibe Street,-30.2710915,29.939462
44099826,Bheki Khambule Close,-29.886614,30.8315368
43887090,Bheki Makhathini Street,-29.7542257,30.9963381
44452143,Bheki Mathebula Way,-30.0331041,30.867387
43751904,Bheki Mbutho Way,-29.7828454,30.8975267
44452119,Bheki Mhlongo Circle,-30.0293054,30.8700632
44214461,Bheki Mkhasibe Road,-29.9470874,30.8746545
43982446,Bheki Mkhize Lane,-29.990573,30.8149338
44216768,Bheki Nkomane Way,-29.9639304,30.891095
43752386,Bheki Sibiya Lane,-29.7661425,30.9197626
437319417,Bheki Street,-28.6276062,29.9150453
44214459,Bhekilanga Lane,-29.9602823,30.8607922
58516033,Bhekilanga Place,-29.7658477,30.8727788
47710680,Bhekimpilo Road,-29.7121409,30.9346109
1203075543,Bhekinkosi Street,-28.5646294,31.3872392
45446021,Bhekisizwe Close,-29.6672356,31.0639058
44102111,Bhekisizwe Road,-29.8595177,30.7947286
44214457,Bhekithemba Grove,-29.9824354,30.8699643
43982367,Bhekiziyha Road,-30.0019715,30.8312355
43982465,Bhekizizwe Khumalo Crescent,-29.9884467,30.8173327
44215739,Bhekumuzi Avenue,-29.9915045,30.893103
47712151,Bhekuyise Road,-29.7114039,30.9748983
44214458,Bhekuzulu Lane,-29.98381,30.8720018
44215358,Bhekuzulu Place,-29.9849794,30.8667655
193114393,Bhekuzulu Road,-29.6338382,30.3250082
804442373,Bhekuzulu Street,-27.790721,30.8198563
47711121,Bhele Avenue,-29.71021,30.9447128
39739656,Bhengabar Close,-29.8524356,30.9674161
44470250,Bhengu Road,-30.0484878,30.8726408
52086647,Bhengu Street,-27.7782289,30.821188
44452053,Bhi Mkhize Circle,-30.0340346,30.8564215
198051856,Bhidla Road,-29.1350459,31.3960772
533117856,Bhira Close,-29.7104185,31.0733013
44452060,Bhiyo Ngcobo Avenue,-30.0285336,30.860873
437335193,Bhobhoni Road,-28.6240528,29.8864546
43982849,Bhodlela Maphumulo Lane,-29.9889683,30.8150213
44216147,Bhodloza Close,-29.9622951,30.8901971
126126156,Bhogal Grove,-29.8188106,30.9681286
43910983,Bhoko Road,-29.7371723,30.9630272
44452056,Bhokolwakhe Walk,-30.028861,30.8586018
45880459,Bhongabhonga Place,-29.7356565,31.0238081
44102192,Bhongoza Place,-29.8825315,30.7985636
44012974,Bhoola Road,-29.5742764,31.103573
44215393,Bhoqo Road,-29.9750435,30.8863525
198038453,Bhoqobhoqo Street,-28.8603721,31.9210546
45096478,Bhoqwana Road,-30.1679735,30.7766592
44214454,Bhoyo Mabaso Drive,-29.9597766,30.9250631
52086633,Bhoza Street,-27.7811069,30.8238695
39739627,Bhozo Street,-29.8549634,30.9586236
632429044,Bhubes Street,-29.4453405,30.0961444
47711061,Bhubesi Drive,-29.7130794,30.9430069
44102803,Bhubesi Place,-29.879305,30.835258
43025902,Bhubesi Road,-29.8543201,30.9431808
437282016,Bhubesi Street,-28.6002013,29.9313791
851393626,Bhubha Road,-29.6567254,30.3549582
44214465,Bhubhubhu Road,-29.9809867,30.8835257
45082599,Bhuj Road,-29.9490795,30.9688899
44214436,Bhuleni Street,-29.9634366,30.8776742
438378490,Bhuma Road,-29.654504,30.3586582
43911341,Bhungane Road,-29.7371074,30.9905609
44102801,Bhungezi Lane,-29.8816175,30.8374673
43911098,Bhungezi Road,-29.7269354,30.9784466
44214437,Bhuqwini Avenue,-29.9628797,30.9216253
44214455,Bhusmani Road,-29.9432269,30.883471
800944641,Bhuti Ndlovu Crescent,-29.9873514,30.8169525
45082606,Bidar Road,-29.9627251,30.9778049
48782416,Bidston Road,-29.8552743,30.9826773
661452744,Bidstone Road,-30.8863388,30.3515671
44121314,Bierbaum Street,-29.7830529,30.8689649
859971883,Big Fisherman Road,-30.6468282,30.5272925
552375482,Big Tree Valley,-29.5636912,30.3509903
209308439,Biggar Road,-28.750767,31.8866497
119291404,Biggar Street,-28.1767423,30.1524503
44100047,Biggarsberg Street,-29.8865784,30.8781394
474913949,Biggasberg Street,-28.0440294,30.0249575
808377677,Bigger Street,-30.902295,30.3244372
120073438,Biggs Road,-29.0094679,29.8539726
103033369,Bikini Beach,-27.545778,31.0381681
44651698,Biko Road,-29.8586239,30.7757114
43672321,Bilberry Avenue,-29.8952325,30.8617663
44099434,Bilberry Road,-29.9167081,30.8392004
136281117,Bilkis Street,-29.3236,31.2899275
44470248,Bill Leathern Road,-30.0696104,30.8515043
48611366,Bill Simpson Road,-29.7609117,31.0617655
42644330,Bill Wood Road,-29.8962866,30.9028187
48573126,Billete Street,-29.8733734,31.0509946
45881237,Billford Road,-29.6958215,31.0030878
45880394,Billy Mkhonto Place,-29.7329505,31.0122596
44358804,Bingelela Road,-29.7743338,30.9320396
47712035,Bingelela Walk,-29.7095616,30.9668828
45242233,Bingham Crescent,-29.9094156,31.0302014
45242236,Bingham Place,-29.9099573,31.0295712
48782291,Binns Avenue,-29.8729375,30.9868919
42644331,Binty Dixon Road,-29.8708835,30.9172301
118758877,Birch Place,-29.5758257,30.424552
42897201,Birch Road,-29.8473693,30.8696607
52462545,Birch Street,-27.7913822,30.8159202
44358955,Birchfield Road,-29.7739782,30.9447792
265065701,Birchington Drive,-30.8451823,30.3707271
45881157,Birchmore Place,-29.6937957,31.0245867
45884405,Birchwood Close,-29.6847148,31.0256702
59595569,Bird Lane,-30.7169983,30.4574841
44446288,Bird Place,-29.9155259,30.9607031
45446179,Bird Road,-29.6574555,31.0570249
94062993,Bird Street,-27.7540857,29.9202738
24929511,Birdhurst Road,-29.8175398,30.8948066
327100647,Birdie Close,-29.5385549,31.1991118
88425929,Biria Road,-28.5816899,29.7858329
48782056,Birkenhead Road,-29.8922688,30.975823
48667378,Birkett Drive,-29.8250086,31.0055483
67901666,Birkett Road,-29.6188573,30.3921258
171636904,Birkett Street,-28.1735132,30.2358439
98652274,Birmingham Road,-29.5771505,30.4175206
38139053,Bisasar Road,-29.815013,30.9892223
661377813,Bischof Road,-30.8843521,30.3519682
438632506,Bishoon Road,-29.6478238,30.3283639
19782950,Bishop Road,-29.7303765,30.5531286
1531438673,Bishop biyase Street,-28.8811974,31.4819764
679293665,Bishop's Inkaba - Sungubala Contour,-28.616839,28.9613241
44358926,Bishopfield Close,-29.7785318,30.946237
45880988,Bishopsgate Road,-29.7307005,31.0289834
45266894,Bisley Close,-29.8987726,31.0374528
119506961,Bisley Road,-29.665623,30.3888698
118709543,Bisset Road,-29.6280527,30.3876157
45094628,Bisset Street,-30.2049528,30.7958583
198268668,Bivane 4x4 Trail,-27.4726223,31.2061011
45094466,Bivinia Road,-30.1935735,30.7410597
48611279,Bixa Close,-29.7611193,31.0383186
39812425,Biyela Street,-28.7394903,31.8905806
593707197,Bjorseth Crescent,-30.057146,30.8812508
179666641,Black Street,-28.1821857,30.1545868
89561185,Black Tree Trail,-28.7260465,32.0383269
327200252,Black Wildebeest Road,-28.4549225,29.9642583
42644718,Blackberry Place,-29.8576991,30.8803078
48610819,Blackburn Road,-29.7784663,31.0282754
67915062,Blackburrow Road,-29.6232514,30.4047151
420328916,Blackford Close,-29.7358852,31.0592305
45882640,Blackhaven Grove,-29.6905409,31.0148101
48667039,Blackhurst Avenue,-29.8504649,30.9941176
457961095,Blackpool Avenue,-31.0259664,30.2346842
45242231,Blackpool Road,-29.9104784,31.0287309
327090574,Blackwood Close,-29.5575139,31.1894524
48611303,Blackwood Place,-29.7680244,31.0486598
126126132,Blaine Road,-29.8111494,30.9726972
136289477,Blaine Street,-29.3415835,31.2856178
44121199,Blair Road,-29.818312,30.8802396
41571228,Blairgowrie Road,-29.8122137,30.9096764
44370432,Blairmont Avenue,-29.8893684,30.9581069
457693602,Blake Crescent,-30.9562231,30.2971457
37959859,Blake Road,-29.8638734,31.0069391
45094335,Blamey Close,-30.237974,30.7805131
44446290,Blamey Road,-29.9151175,30.9708491
48782075,Blanche Grove,-29.8880179,30.9786741
44370393,Blankenberg Road,-29.8942191,30.9399735
44214762,Blanket Avenue,-29.9849707,30.8781078
44121282,Blase Road,-29.7992298,30.8779606
122029452,Blaydon Crescent,-29.646629,30.3806122
44007167,Blaze Way,-30.0338597,30.889399
45881407,Blenford Crescent,-29.6982143,31.0016041
45445577,Blenheim Court,-29.7224223,31.0784763
48573236,Blenheim Place,-29.8589377,31.0396551
42896986,Blenheim Road,-29.8395495,30.8646767
44359243,Blenny Road,-29.7641623,30.9808894
46695801,Blenton Road,-29.7988752,30.9365724
71235854,Blesbok,-28.5303888,29.7691572
94093510,Blesbok Avenue,-27.7406853,29.9254426
39265524,Blesbok Crescent,-27.7854085,30.7771351
186312480,Blesbok Road,-29.0210576,31.5821327
383083424,Blesbok Street,-28.7636077,31.909023
198023673,Blesbokboog Street,-28.735001,32.0446136
820910409,Blesbuck Close,-29.0308778,29.4608583
732510225,Blesbuck Lane,-29.477493,30.2530881
327200253,Blesbuck Loop,-28.4775862,30.018911
44214456,Blessing Mabaso Road,-29.9537125,30.8917745
95172230,Blessing Ninela,-29.7432363,30.7928483
457693609,Bligh Lane,-30.9520861,30.2914756
417635629,Blink Bonnie Lane,-29.3409427,31.3690735
39739515,Blinkbonnie Road,-29.8447753,30.9732112
94101378,Bloedrivier Avenue,-27.7281405,29.977257
171649651,Bloekom Avenue,-28.1635698,30.1511361
39429070,Bloekom Street,-27.7650555,30.8184722
68276383,Bloem Street,-27.65368,30.3188478
44121356,Blofield Road,-29.7869897,30.8762734
44102082,Blose Avenue,-29.8446391,30.8498742
45471720,Blossom Close,-29.7432761,31.0482169
43672580,Blossom Place,-29.9190379,30.917186
116595207,Blossom Road,-29.515357,30.2223776
94447189,Bloukrans Road,-28.5432741,29.8155085
94334021,Bloukrans Stret,-28.7427676,29.8244188
171636874,Bloukranse Road,-28.1511983,30.2305518
198022758,Blouvalkbos Street,-28.7386222,32.0755259
198023668,Blue Bell,-28.7357272,32.054976
495026432,Blue Bell Avenue,-28.3981804,32.2172007
43672287,Blue Bonnet Crescent,-29.9024214,30.8710121
45668789,Blue Crane Drive,-29.6520864,31.0184407
142808633,Blue Crane End,-29.4733079,30.2464671
327200267,Blue Crane Way,-28.4703359,29.9643882
366173175,Blue Grotto Trail,-29.0052049,29.4094578
1025997906,Blue Grotto from Bergview Estate,-29.011338,29.4054887
18483740,Blue Gum Crescent,-29.7954223,30.8038665
860677725,Blue Gum Road,-30.8859123,30.3439419
43672104,Blue Jill Crescent,-29.9131101,30.8669202
142756843,Blue Quail Walk,-29.4710863,30.2422309
48611153,Blue Ridge,-29.762837,31.0483477
222147116,Blue Street,-29.1050435,31.4244832
125139772,Blue Waterlily,-28.7168207,32.0352986
45471840,Blue Waters Lane,-29.7312969,31.0849628
42897057,Bluebell Crescent,-29.8350393,30.8482512
95553221,Bluebell Drive,-29.5409954,30.4061582
44359197,Bluebell Place,-29.7639158,30.9638792
45445682,Bluebell Road,-29.6611959,31.0497273
120073392,Bluebell Street,-29.0049372,29.8522548
42644720,Blueberry Place,-29.8572969,30.8787023
45669041,Blueberry Road,-29.6484156,31.0377022
125860206,Bluebuck Street,-28.7565736,31.8854534
43672574,Bluecrest Terrace,-29.9257297,30.9158506
45668816,Bluefern Close,-29.657148,31.0029593
45880599,Bluefern Place,-29.7091458,30.9827174
45884409,Bluegrove Place,-29.6974177,31.032764
44470246,Bluegum Way,-30.0716224,30.8630783
45882906,Bluehaven Place,-29.6829983,31.0140477
44358827,Bluerich Place,-29.7712611,30.9315968
44370549,Bluewater Crescent,-29.8959606,30.9628757
45260288,Bluff Road,-29.9217039,30.9759777
42644709,Blundell Crescent,-29.8730828,30.888319
44103402,Blundell Road,-29.8757097,30.8863133
41570835,Blythe Place,-29.8385879,30.95396
48782257,Blythswood Road,-29.8715925,30.9929191
45880379,Bo Makhathini Walk,-29.7359279,31.0107922
975971858,Board Road,-30.9219413,30.3048648
95614597,Boast Street,-28.8866839,31.4795102
37907367,Boatmans Road,-29.8649176,31.0172541
417635653,Bobby Jones Street,-29.3452981,31.3729775
94821321,Bobby Locke Avenue,-30.8514584,30.3468381
45882417,Boblen Place,-29.6953317,30.9957579
438020007,Bobo Road,-29.7616323,30.9446318
61908649,Boboni Road,-30.8012529,30.4095721
44358852,Bodley Grove,-29.7844621,30.9706796
98476213,Bodmin Road,-29.5680134,30.4120807
87366743,Boekenhout,-28.7474577,32.0637358
117071736,Boekenhout Avenue,-28.766868,31.8995038
44470255,Boekenhout Drive,-30.0720471,30.8592133
118758898,Boekenhout Lane,-29.5749004,30.426048
39317178,Boekenhout Street,-27.778139,30.7759114
89425280,Boerboon Street,-28.7474703,32.0639907
39265488,Boeren Street,-27.7732274,30.7873942
47711830,Bohlololo Lane,-29.7148946,30.9660988
41570994,Bohmer Place,-29.8256048,30.9098252
44121302,Bohmer Road,-29.7917912,30.8699002
42897344,Bohnen Road,-29.8306644,30.8528773
44102270,Boikie Watson Road,-29.8707325,30.7868123
198023243,Bokbaaivygie Street,-28.7377068,32.0568388
816368764,Bokmakierie Road,-30.6601075,30.5157119
120248843,Bokmakierie Street,-27.3804144,31.6194742
46695770,Bologna Avenue,-29.8073571,30.9350602
126126178,Bolton Road,-29.8172995,30.9677795
327200274,Boma Extension,-28.5169975,29.96882
327200276,Boma Road,-28.5026253,29.9639156
94329095,Bombai Road,-28.5646625,29.7867186
87439345,Bombay Road,-29.5652313,30.393438
701119885,Bona Terra Road,-29.7818778,30.7485214
48667092,Bonair Road,-29.8406697,31.0019678
43910923,Bonakele Nxumalo Road,-29.745173,30.9697502
48782478,Bonamour Avenue,-29.85809,31.0015914
187179448,Bonamuva Street,-28.8882866,31.4979295
43751926,Bonani Place,-29.7805302,30.8991979
118729447,Bonanza Road,-29.6367465,30.4269878
44470254,Bonaventura Avenue,-30.0814778,30.8490175
69082343,Bond Avenue,-30.8286811,30.3979804
45446539,Bond Street,-29.6325975,31.0900315
44359053,Bondale Place,-29.7778725,30.9655948
39724416,Bonela Road,-29.84301,30.9673255
47712270,Bongani Biyela Place,-29.7014599,30.9569278
44215343,Bongani Nxele Walk,-29.9508159,30.9065092
44452233,Bongani Nzama Avenue,-30.0262367,30.8584503
370902888,Bongani Street,-28.4343469,32.1416458
43911308,Bongani Thwala Place,-29.7346587,30.9953842
44216126,Bongi Bhengu Avenue,-29.9729072,30.8905367
45882328,Bonham Place,-29.6947998,30.9861505
48782037,Bonieux Place,-29.8840311,30.9815726
44446297,Boniface Avenue,-29.9166767,30.9523815
44470253,Boniface Place,-30.084856,30.8490563
47712641,Bonisile Sukude Street,-29.7003246,30.974136
180401387,Bonita Bay,-28.7847947,32.0908422
44359073,Bonita Place,-29.7768009,30.9775476
44461095,Bonito Avenue,-29.9909007,30.9479596
332693648,Bonito Road,-29.3659938,31.3483243
44359288,Bonnet Place,-29.7643282,30.9832189
45260292,Bonnington Place,-29.9278979,30.9763551
118749829,Bonnyview Place,-29.5851594,30.408341
119199479,Bontebok,-28.7539944,31.9044525
198023666,Bontebokboog Street,-28.734398,32.0445781
207477588,Bonvista Road,-31.0609208,30.1838478
176324385,Booi Lane,-30.5450784,29.4369872
28431227,Boom Street,-29.596578,30.3773986
94821329,Boonzaaier Street,-30.8521594,30.3564546
45881043,Bootgreen Walk,-29.7254792,31.0283899
38178350,Booth Avenue,-29.836757,30.9874346
434826143,Booth Place,-29.4731967,30.1583797
44461096,Booth Road,-30.0158093,30.9219694
176324347,Booysen Avenue,-30.553727,29.4359649
42644328,Booysen Road,-29.8599087,30.8924408
44214476,Bophela Avenue,-29.9585672,30.8577199
94093503,Border Avenue,-27.7285026,29.9234427
58986127,Border Road,-30.6946389,30.4890537
48408158,Borgen Circle,-29.6340749,31.132133
48667260,Borlase Road,-29.8343961,31.0103205
771931153,Bormann Road,-28.766585,31.8909662
46344151,Born in Africa Road,-29.38602,30.0367908
45266895,Borneo Road,-29.8896717,31.0352538
48667347,Bornick Road,-29.8281841,31.0226098
193666079,Bornite Place,-29.5540891,30.4253475
125139770,Boronia Beam Street,-28.7171243,32.0332584
39739600,Borough Road,-29.8524191,30.9622558
48573241,Boscombe Place,-29.8550049,31.0366137
45242232,Boshoff Road,-29.9294269,30.9980003
89077779,Boshoff Street,-29.6056579,30.3907392
198022773,Bosmusikant Street,-28.7384048,32.075517
44121303,Bosse Street,-29.7863906,30.8702658
89561184,Boston Bend,-28.7284898,32.0383533
45082605,Boston Road,-29.9343461,30.9872661
89425285,Bosvlier,-28.7463882,32.0641313
44370479,Boswell Road,-29.8921364,30.9520316
48667005,Botanic Avenue,-29.8503086,31.0030035
48667006,Botanic Gardens Road,-29.8477867,31.004679
48667044,Botanic Grove,-29.8537298,31.0023665
113778418,Botha Avenue,-27.7350905,29.9449119
42070799,Botha Place,-30.3887022,30.6943913
39583365,Botha Road,-29.8169362,30.7802904
48015709,Botha Street,-27.5794275,31.302266
45882394,Botham Close,-29.6870183,30.9880093
48406168,Bottle Brush Avenue,-29.5765717,31.1199959
198023231,Bottlebrush Bend,-28.740026,32.0569218
43672289,Bottlebrush Crescent,-29.8994763,30.8706364
45668820,Bottlebrush Grove,-29.6540075,30.9994447
118871558,Bottlebrush Road,-29.5805175,30.3883325
804799096,Bottlebrushbend,-28.7385623,32.0553521
45884395,Bottlepalm Place,-29.6677369,31.0218615
58516477,Bottom Place,-29.7666972,30.8769477
39288899,Bottomley Road,-29.8963533,30.9781509
256797621,Bougainvilla Place,-28.4138656,32.1871225
48611152,Bougainvillaea Drive,-29.7629218,31.0403191
120073449,Bougainvillea Avenue,-28.9903596,29.8616616
44470252,Bouganvillea Crescent,-30.0873691,30.8444208
42644329,Bouganvillia Road,-29.8972366,30.9167188
117071699,Bougasinvillea Street,-28.7619774,31.9035077
118936102,Boughton Place,-29.60363,30.3246461
119892672,Boulden Street,-27.7654174,29.9412285
89561191,Boulder Bend,-28.7254091,32.0381632
244124456,Boulder Hop,-28.7421368,28.9143539
436615462,Boulder Lane,-29.5781336,30.4295426
971656732,Boulder Road,-31.0138756,30.2545948
457693610,Boulevard East,-30.9763673,30.2747814
462354576,Boulevard Street West,-30.9770864,30.2729311
43672254,Boundary Crescent,-29.9056635,30.877736
44470230,Boundary Lane,-30.0686245,30.8749549
42644334,Boundary Road,-29.8755541,30.8934195
114311625,Boundary Street,-27.7671383,29.9211409
58942657,Boundry Lane,-29.5005079,31.234589
87322193,Bourke Street,-29.5959391,30.3844573
92036555,Bourne Avenue,-29.6162895,30.4293263
457961094,Bournemouth Avenue,-31.0276652,30.2392524
61908627,Bouverie Road,-30.8159745,30.403678
45880792,Bowbridge Place,-29.718443,31.0203279
45880805,Bowclay Place,-29.712603,31.0228016
42644335,Bowden Road,-29.8749136,30.9125256
48782141,Bowen Avenue,-29.8769779,30.9722262
42644336,Bowen Place,-29.8792135,30.9191905
44470265,Bowen Street,-30.0370261,30.8909504
44370463,Bower Place,-29.8858609,30.9397507
59595527,Bowery Place,-30.7204046,30.4611925
48782323,Bowes-lyon Avenue,-29.8655187,30.9855024
45881019,Bowgreen Place,-29.7264729,31.0299776
42644333,Bowker Road,-29.8790408,30.9043409
105762825,Bowles Road,-29.7917391,30.7270063
120073420,Bowley Grant Avenue,-29.0147767,29.8630826
87277323,Bowling Club Lane,-29.7884386,29.4994712
39344956,Bowood Crescent,-29.867878,30.9566432
45881194,Bowside Road,-29.6847819,31.0107494
632484502,Boxer Avenue,-29.5702664,30.179428
117083400,Boxing Road,-28.7738801,31.8560218
48782049,Boxley Place,-29.8892438,30.973707
48391570,Boxwood Place,-29.7988536,30.9954897
44103408,Boy Nxumalo Close,-29.872277,30.8670101
118818442,Boyd Road,-29.6160702,30.3332999
812435365,Boyes Lane,-30.8630292,30.3684183
44215399,Boyi Simelane Avenue,-29.9770627,30.8635444
45242245,Boynes Road,-29.9053305,31.0323008
47712271,Boysie Ngcobo Street,-29.702667,30.9566222
43910922,Boza Road,-29.7441521,30.9647747
258744170,Bozas Street,-28.8895431,31.4548939
44452114,Bra Mbatha Avenue,-30.0216779,30.8723216
42897555,Braby Place,-29.8275526,30.8876938
44470266,Bracken Place,-30.0638487,30.8631405
48611260,Bracken Road,-29.7560032,31.036621
58516092,Brackenhill Road,-29.7428667,30.8073306
45884451,Brackenwood Road,-29.6869739,31.0302917
45881413,Bracklen Terrace,-29.6966654,30.9961743
45094650,Brad Street,-30.204215,30.8002361
45882874,Bradbrook Place,-29.6806814,31.0019675
45880804,Bradcroft Close,-29.7129823,31.008031
44121337,Bradfield Place,-29.7885735,30.882153
190588252,Bradfield Road,-30.5897366,30.564302
42897521,Bradford Place,-29.824519,30.8778195
265065703,Bradley Brae Road,-30.8472611,30.3796676
39576923,Bradley Road,-29.8128571,30.7787994
42644702,Bradshaw Lane,-29.8814445,30.9304614
89249398,Bradshaw Road,-29.6484986,30.385783
706137107,Bradwell Close,-29.7325802,31.0596133
45471574,Braemar Avenue,-29.7568523,31.0647372
46618840,Braemar Crescent,-29.4874353,30.2222126
44370294,Braemar Road,-29.8855256,30.9338539
44370488,Braeside Avenue,-29.8915552,30.9494176
44370571,Braeside Road,-29.8970305,30.9692239
1328106040,Brahman Drive,-29.464741,30.232078
48094192,Brahman Street,-29.6957672,30.6446028
44370395,Braid Avenue,-29.9021375,30.9536308
118698917,Braid Street,-29.607184,30.388179
45882423,Brailsford Avenue,-29.6946705,31.0036925
42897607,Brair Lane,-29.8142892,30.8663573
48782364,Braiswick Place,-29.8699942,30.9960281
87177723,Braithwaite Road,-29.5745002,30.3455411
45446673,Brake Drive,-29.5798596,31.1178832
89561155,Brake Fern Street,-28.7248329,32.0396904
48572934,Bram Fischer Road,-29.8530577,31.0218894
42644337,Bramber Road,-29.8798005,30.9109543
89478676,Bramble Lane,-29.5544327,30.2918185
89561158,Bramble Terrace,-28.7269333,32.0410564
39344959,Bramcote Road,-29.8677896,30.9596565
118975374,Bramdaw Road,-29.5697167,30.3931866
45881267,Bramford Road,-29.6949278,31.0135383
45242276,Bramley Place,-29.9173993,31.0014848
38110041,Branch Lane,-29.815695,31.0033129
45882974,Branchmanor Gardens,-29.6765047,31.0087332
48782374,Brand Avenue,-29.863594,30.9952719
42897084,Brand Road,-29.8178828,30.8398275
118818429,Brand van Zyl Road,-29.6163058,30.3339473
117062332,Brandon Road,-28.7672959,31.9087855
61480676,Brandt Road,-30.8384765,30.3790325
42644339,Bransby Place,-29.8737634,30.9021618
198025195,Brass Link,-28.7508804,32.0255586
864079424,Brass Street,-28.7750045,31.8908467
61376708,Brauteseth Road,-30.7516443,30.4291469
436675734,Bravo One Way,-29.8628919,30.9457182
45882528,Brayford Avenue,-29.6987552,31.0092943
118665859,Brayford Road,-29.6297947,30.3725352
48782159,Brazilia Place,-29.8795494,30.9725436
44370636,Breakers Place,-29.8933659,30.9660808
45884497,Breakwood Place,-29.6828765,31.028779
94731543,Bream,-30.8849559,30.352755
44359074,Bream Close,-29.7774672,30.9774398
807226073,Bream Drive,-31.0185765,30.2455373
180401373,Bream Hill Street,-28.7846901,32.0924602
107917101,Bream Road,-30.3671403,30.702248
48408224,Bream Street,-29.6059633,31.1581556
45882369,Brebham Gardens,-29.6896863,30.9862239
193666069,Breccia Terrace,-29.5545013,30.4229353
23698752,Brecher Street,-27.7607549,30.787418
87311928,Brechin Place,-29.5784054,30.3408915
442919960,Bredelia Street,-28.6012681,32.0824489
44446295,Bredell Place,-29.9223024,30.9644641
45266896,Breede Road,-29.8848502,31.013307
44004225,Breeze Place,-29.5460111,31.1418897
42897459,Breightmet Avenue,-29.8175041,30.8621062
45266897,Bremen Road,-29.8903081,30.9999458
808386907,Brenchley Road,-30.893449,30.3419801
41570904,Brendon Lane,-29.833553,30.9189306
45882396,Brenlen Road,-29.6924735,30.9988344
42897183,Brent Road,-29.846531,30.8726952
45881277,Brentham Close,-29.7012059,30.9825042
48782490,Brents Avenue,-29.8583586,30.998523
45884468,Brentwood Gardens,-29.6874097,31.0319247
42644341,Brentwood Road,-29.865623,30.8862557
42644340,Brett Road,-29.8662388,30.9060784
149393818,Brettenwood Entrance,-29.4809758,31.234434
48782058,Brettonwood Avenue,-29.8912761,30.9729944
48782412,Brewers Avenue,-29.8544656,30.9924611
420331106,Brewham Close,-29.7351003,31.0599165
228993751,Brewitt,-29.010524,29.8646933
228993809,Brewitt Road,-29.0121786,29.8692383
48573185,Brews Road,-29.8526442,31.0350387
39353508,Breë Street,-27.7622476,30.786039
48610729,Briar Lane,-29.7982667,31.0214763
44359054,Briardale Drive,-29.7712806,30.963171
48610741,Brick Road,-29.7965542,31.0149482
45881001,Brickcottage Road,-29.7197052,31.0359834
45445813,Brickfield Road,-29.6703906,31.0520749
89668694,Brickhill Road,-30.7811158,30.4176449
45882910,Brickmanor Place,-29.6820338,31.007459
48391557,Brickworks Way,-29.798012,31.0129638
58516060,Bridal Veil Road,-29.7364707,30.8416288
149715585,Bridelia Close,-29.5148338,31.2121292
45880256,Bridge City Boulevard,-29.7260398,30.9903226
43887107,Bridge Place,-29.753106,30.9964514
44370336,Bridge Road,-29.9042579,30.9633573
45668991,Bridgeford Drive,-29.6560404,31.0366358
166187855,Bridger Street,-27.7497177,29.9359959
19541614,Bridget Road,-29.7820006,30.7994628
45880632,Bridgevale Crescent,-29.7091021,30.9958398
48667470,Bridgeview Road,-29.8156631,31.0120674
420331097,Bridgewater Close,-29.7332543,31.0597598
98645187,Bridle Place,-29.5906383,30.4452436
58516277,Bridle Road,-29.7718811,30.8309597
44370547,Bridlington Road,-29.9017617,30.9672658
92032950,Brief Road,-30.8832427,30.3491019
98645147,Brigade Terrace,-29.590359,30.442721
45882584,Brigbury Place,-29.699283,31.0173292
45880588,Brightfern Grove,-29.710942,30.9839683
45882742,Brighthaven Place,-29.6915203,31.0185315
861287583,Brighton Avenue,-31.0237516,30.2444829
48573238,Brighton Place,-29.8577533,31.0389989
45260297,Brighton Road,-29.9217166,31.0020751
45880581,Brimestone Road,-29.7107252,30.9868631
44359084,Brindle Place,-29.7622505,30.9707975
89494982,Brindy Road,-29.5553516,30.2993729
45880823,Brineclay Place,-29.7163269,31.0116665
45880681,Brinkvale Place,-29.7093121,31.001043
48782039,Brisbane Road,-29.8939531,30.9781284
44470268,Briscoe Place,-30.0377984,30.886304
48782279,Brisker Road,-29.8790033,30.9849295
89561178,Bristle Beam Street,-28.7252073,32.0386471
797855176,Bristol Avenue,-31.0197309,30.2360548
41571328,Bristol Road,-29.8434197,30.9522468
39461587,Bristow Crescent,-29.8453255,30.9800219
39461590,Bristow Place,-29.8467378,30.980716
436615426,Brittlewood,-29.615646,30.4405729
327090559,Brittlewood Close,-29.5590849,31.1905742
45242271,Brixham Avenue,-29.9032187,31.0235293
95556035,Brixham Road,-29.5508336,30.4177997
38160307,Briza Place,-29.8295892,30.9877198
44359278,Broadbill Place,-29.7647242,30.982281
45880555,Broadfern Close,-29.7167043,30.9826729
45881008,Broadgreen Mall,-29.7232768,31.0311028
45881147,Broadgrove Avenue,-29.6964989,31.02446
24925358,Broadway Road,-29.7984991,30.8688801
105747250,Broadway Street,-28.7274557,29.3475253
45445589,Broadwood Drive,-29.7133292,31.086528
45880800,Brockclay Place,-29.7153133,31.0145529
42897682,Brockwell Place,-29.8279562,30.9056568
95614592,Brockwell Street,-28.8864358,31.4758676
42644338,Brokensha Road,-29.8766805,30.9069443
44358961,Bromfield Close,-29.7799775,30.9514337
58516040,Bromhead Road,-29.7804153,30.8537104
852275954,Bromley Lane,-29.6050438,30.3677146
265065705,Bromley Place,-30.8447839,30.3702973
45880684,Bromvale Place,-29.7079699,31.0003582
771707557,Brons Way,-28.7803634,31.8984295
651542434,Bronwyn Way,-29.4268733,31.2565072
198025207,Bronze Bar Street,-28.7446468,32.0195635
117071672,Bronze Street,-28.7788956,31.8946366
757341136,Brook Road,-29.5793787,30.4077161
45669077,Brook Street,-29.6420782,31.0394022
48408249,Brook View Place,-29.5868685,31.1713976
118814371,Brookby Crescent,-29.6112223,30.3399991
45881212,Brookdale Drive,-29.6847518,31.001862
89479351,Brookdale Place,-29.5505792,30.2933648
42644345,Brookdale Road,-29.8634032,30.8751292
89479353,Brookdale Way,-29.551274,30.2925038
791433660,Brooke Gardens,-30.9532831,30.299548
45471686,Brookend Close,-29.7468323,31.0384081
45882880,Brookhaven Road,-29.6830405,31.0143425
48610951,Brooklands Crescent,-29.7891412,31.0367938
45082610,Brooklyn Road,-29.9409482,30.9776662
45882926,Brookmanor Circle,-29.6833624,31.005564
44370271,Brookside Road,-29.8898159,30.9277971
45880186,Brookstone Place,-29.7071094,30.9925913
45880209,Brookvale Place,-29.7072677,30.997645
804810168,Broom Reed Bend,-28.7167747,32.0363749
120073531,Broom Street,-29.0035249,29.8531412
148534836,Broome Street,-30.8597232,30.357862
706137104,Broomfield Close,-29.7355118,31.0581876
897324609,Brown Lane,-30.6746106,30.5087636
126506042,Brown Road,-30.9119531,30.3250061
812435345,Brown Street,-30.862742,30.3510176
45880733,Brownclay Place,-29.7190059,31.0105593
81151730,Browning Street,-28.1572604,30.2418586
45242256,Brownlee Place,-29.9278119,30.9926455
176311478,Brownlee Street,-30.542485,29.4145511
45883032,Brownmanor Place,-29.6746914,31.0108382
38178349,Browns Avenue,-29.8361899,30.9863563
48610630,Browns Drift Road,-29.8035318,31.0236708
39742710,Browns Grove,-29.8373684,30.9707224
48573083,Browns Road,-29.8704085,31.0483366
41570889,Bruce Crescent,-29.8254823,30.9403021
42644344,Bruce Road,-29.8714118,30.9283828
42897353,Brunette Road,-29.8317574,30.8542052
45260294,Bruning Place,-29.9262317,30.9892802
43751943,Bruno Avenue,-29.7756381,30.9036033
48782161,Brunswick Road,-29.8747256,30.9758807
45880713,Brushclay Close,-29.7195166,31.0083734
44359060,Brusher Place,-29.7744713,30.9664743
420331104,Brushford Close,-29.7356435,31.0601872
45445458,Bruton Close,-29.7311744,31.0574996
813126948,Bruton Road,-30.9207957,30.3118057
42896973,Bryant Street,-29.8395842,30.8389899
125859319,Bryden Road,-28.763203,31.8901918
136289521,Bryne Road,-29.335123,31.273786
107966752,Buccaneers Walk,-30.4942424,30.6309081
19782966,Buchanan Road,-29.7293004,30.5261111
46419405,Buchanan Street,-29.4744512,30.220794
860677724,Buck Drive,-30.8874419,30.3437505
45446226,Buck Road,-29.6608867,31.0563943
43756420,Bucket Street,-29.7890664,30.8958688
45882313,Buckham Circle,-29.6905459,30.9874858
45669052,Buckhirst Place,-29.6435024,31.0345657
44370583,Buckhurst Road,-29.9023261,30.9725922
118704827,Buckingham Avenue,-29.6223275,30.3881967
45445555,Buckingham Court,-29.7235927,31.0757664
167105282,Buckingham Drive,-30.7471142,30.419322
42897709,Buckingham Place,-29.8293463,30.8985528
39724180,Buckingham Road,-29.8442514,30.9729689
48396183,Buckingham Street,-29.6645178,31.0421848
41570884,Buckingham Terrace,-29.8349889,30.9159682
1185046869,Buckleigh Place,-29.803624,31.0162578
89561161,Buckler Street,-28.7280045,32.03882
118720630,Buckley Road,-29.6548648,30.3990472
771680208,Buckley Street,-27.7744561,29.9303953
47998791,Buckman Boulavard,-29.8056496,30.6560574
45881336,Buckstone Road,-29.7054136,30.989112
108870447,Budgie Place,-29.5175467,30.2255173
45881082,Budgreen Place,-29.7225113,31.0328875
89476263,Budleigh Road,-29.5739982,30.2937718
45082611,Budree Crescent,-29.9367001,30.9892779
198023655,Buffalo Bend,-28.7316025,32.0458337
327200290,Buffalo Charge Road,-28.4812406,30.0083334
98652125,Buffalo Close,-29.5896968,30.4207285
171649755,Buffalo Drive,-28.1751507,30.2091387
58515959,Buffalo Road,-29.7675671,30.8841979
859262104,Buffalo Thorn Close,-29.7586498,30.7193649
149721554,Buffalo Thorn Lane,-29.5222059,31.2184032
327200291,Buffalo Walk,-28.4752726,29.9638132
94078128,Buffel Avenue,-27.7259469,29.9619689
71235927,Buffel Lane,-28.5304707,29.7726845
775078938,Buffel Street,-28.530559,29.7697114
43999807,Buffels Drift Road,-29.7564267,30.6821345
48403260,Buffels Drive,-29.643471,30.9807043
94101303,Buffelsrivier Avenue,-27.7207855,29.9733704
59595559,Bugle Road,-30.8071684,30.4097451
89561182,Bugula Street,-28.7237289,32.0398809
437741080,Buhlakani Road,-29.7222368,30.9526967
436675732,Buhle One Place,-29.8616417,30.9457328
437282008,Buhle Street,-28.5979607,29.9257151
438259554,Buhlebesizwe Lane,-29.7264811,30.967486
1136293481,Buhlebezwe Close,-29.8532515,30.9398343
857161922,Buhlebezwe Road,-29.8530496,30.9384504
45446314,Buhlebuyeza Place,-29.6622604,31.0684968
193666063,Buick Place,-29.5509555,30.4345228
32318797,Builders Way,-29.7863488,30.7717296
39739625,Buka Street,-29.8556359,30.9584492
198038368,Bukhwebe Street,-28.8679718,31.9162214
47998612,Buko Road,-29.802968,30.6125825
44215398,Bulawayo Close,-29.9837197,30.8611858
198022767,Bulbul Bend,-28.7366906,32.0807246
43671879,Bulbul Drive,-29.9407553,30.9086297
45082607,Buldana Road,-29.9621713,30.9755515
42896965,Bullbrand Road,-29.8388616,30.8800963
44446294,Buller Road,-29.9204756,30.9600953
48015695,Buller Street,-27.5718859,31.2928256
56103849,Bullion Boulevard,-28.7519552,32.0476415
777006809,Bullman Circle,-29.0216465,29.8558017
108258579,Bullock Road,-30.4594487,30.6512966
123650862,Bullrush Drive,-29.4736375,30.2439345
119506967,Bulman Road,-29.6543586,30.4171784
125139771,Bulrush Boom,-28.7167603,32.0364271
44470270,Bult Street,-30.0925536,30.8482247
48079660,Bululu Road,-29.7315838,30.8645285
48782132,Bulwer Road,-29.8560538,31.0006591
62356410,Bulwer Street,-30.7363157,30.4528394
44103516,Bumbano Road,-29.8694687,30.8549153
43910918,Bunda Road,-29.7438982,30.9651499
87256893,Bungalow Road,-28.5559622,29.75949
437741089,Bungane Road,-29.7301067,30.9509707
118809668,Bunny Andrerson Road,-29.5782672,30.3203901
193465847,Buntine Place,-29.6426463,30.3628675
149413867,Bunting Avenue,-29.4814299,31.2464215
44446308,Bunting Place,-29.9143172,30.9482939
417433509,Bunty Avenue,-29.5060764,31.2011715
44004226,Bur Lane,-29.5385863,31.1469365
45880747,Burbage Place,-29.727676,31.0152824
44004228,Burbreeze Drive,-29.5389703,31.1450326
45082622,Burdwan Road,-29.947433,30.9614605
45619717,Burford View Road,-29.7311816,31.037031
81919417,Burger Street,-29.6076299,30.3792701
45082621,Burgers Road,-29.943667,30.9722855
44470257,Burgess Walk,-30.1159328,30.84892
98645115,Burgundy Place,-29.5905019,30.4333735
45882422,Burkford Place,-29.6956155,31.0006964
48610964,Burleigh Crescent,-29.7874242,31.0319783
48610995,Burleigh Place,-29.7872198,31.0302035
41571293,Burlington Drive,-29.8392579,30.9169633
44099924,Burlington Road,-29.8927942,30.8871056
42644343,Burma Road,-29.8744396,30.8901071
48667193,Burman Drive,-29.816395,31.0203328
45619797,Burn End,-29.7187752,31.048002
48610982,Burndale Place,-29.7928032,31.0283308
44461094,Burne Crescent,-30.0084814,30.9212294
48667330,Burne Grove,-29.8303976,31.0169626
44461092,Burne Road,-30.0095188,30.9213685
58947981,Burnedale Place,-29.4818358,31.2225692
45471817,Burnham Drive,-29.7393671,31.077225
45082620,Burnham Place,-29.9449704,30.9731878
45880741,Burnhill Close,-29.7274214,31.0201145
44370240,Burnley Avenue,-29.8982876,30.9362218
48610862,Burns Place,-29.7879307,31.0219672
59595552,Burns Road,-30.8138464,30.4072501
45619764,Burnside Drive,-29.7093425,31.0352397
48610898,Burnside Place,-29.772825,31.046773
118745652,Burnside Road,-29.58603,30.4029471
45880612,Burnstone Place,-29.7080416,30.9903381
46695773,Burnton Place,-29.8104949,30.9307445
38139064,Burnwood Road,-29.824197,30.9810942
39461584,Buro Crescent,-29.8470342,30.9826808
1359860848,Burra Close,-29.48897,31.2153298
87322190,Burrows Street,-29.6021188,30.3669753
118699428,Burton Avenue,-29.6214927,30.3823317
706137103,Burton Close,-29.7359325,31.0587892
46695789,Burwood Gardens,-29.8032864,30.9355199
39725986,Busabar Close,-29.8515797,30.9694189
43025997,Busaville Way,-29.8471378,30.9497113
58516302,Bush Lane,-29.7627343,30.8748513
45094327,Bush Road,-30.2398778,30.7746672
87311901,Bush Shrike Close,-29.5747521,30.3386849
149715557,Bush Willow Close,-29.5081482,31.2105471
45881188,Bushbrook Close,-29.6849292,31.0010276
94093564,Bushbuck Avenue,-27.7395556,29.9243618
45619754,Bushbuck Close,-29.7262792,31.0444424
87699484,Bushbuck Lane,-29.5706252,30.3235095
327200303,Bushbuck Loop,-28.446414,30.0125642
42897065,Bushbuck Ridge,-29.8367846,30.8486915
186312243,Bushbuck Road,-29.0215172,31.5846634
209308444,Bushbuck Street,-28.7547137,31.8884012
244427541,Bushbuck Trail,-27.5469998,31.2769121
126561971,Bushbuck Way,-30.4380306,30.661494
45242261,Bushland Road,-29.9044203,31.0333513
209187000,Bushman's Nek Pass Trail,-29.8654697,29.1634312
62001130,Bushman's Nek Road,-29.7876633,29.425302
321109356,Bushmen Painting Trail,-28.6107254,28.9945609
549194373,Bushpig,-29.5691366,30.3585858
327200308,Bushpig Boulevard,-28.4531541,29.9731328
804096999,Bushshrike Lane,-29.4777745,31.2488015
697108909,Bushwillow Valley,-29.7831309,30.8664103
689281937,Bushy Grove,-30.2712697,30.7574156
860959059,Bushy Road,-30.9343054,30.3006386
44070045,Busi Mhlongo Road,-30.0577767,30.8127604
43672516,Business Square,-29.9112955,30.8967112
38160343,Butcher Place,-29.8345552,30.983059
38160342,Butcher Road,-29.8345749,30.9832854
95614604,Butcher Street,-28.8745691,31.4711527
45082619,Bute Lane,-29.9328734,30.9854603
44452132,Bute Mkhize Lane,-30.0339644,30.8616343
48667345,Bute Road,-29.8310886,31.0209659
47998397,Buthelezi Road,-29.8309673,30.6159811
420331094,Butleith Close,-29.7327294,31.0587586
118648424,Butler Street,-29.5962602,30.3723227
44103496,Butter Meyiwa Walk,-29.8730588,30.8617801
707211360,Buttercup Circle,-29.5752499,30.4297627
198023248,Buttercup Cord Road,-28.7391257,32.0595266
44099605,Buttercup Road,-29.9166561,30.8397523
171651684,Buttercup Street,-28.1814056,30.1470463
45446193,Buttercup Way,-29.6623566,31.0524539
118965324,Butterfly Road,-29.5433613,30.409079
44358949,Butterfly Street,-29.7731449,30.9406972
758786682,Butterfly road,-27.480258,32.519047
45881051,Buttergreen Gardens,-29.7251163,31.0348541
45445845,Butternut Road,-29.667031,31.0528475
118657507,Buttery Crescent,-29.5897248,30.3868107
48610641,Buttery Road,-29.8036804,31.0180407
89561195,Button Fern Street,-28.7269348,32.0407556
142756842,Button Walk,-29.4712002,30.2439582
42897403,Butts Road,-29.8228779,30.8630354
45669140,Buxon Street,-29.6390184,31.0392927
48782047,Buxton Gardens,-29.8883055,30.9807421
48610808,Buxton Road,-29.786415,31.0241576
437428715,Buy Africa Road,-28.627659,29.9338798
47711245,Buyani Lane,-29.7103966,30.954061
47711993,Buzani Avenue,-29.7103399,30.9674233
47711876,Buzisisa Avenue,-29.7097424,30.9672159
45882865,Byebrook Place,-29.6830978,31.001196
45082618,Byfield Road,-29.9556318,30.973164
45242279,Byng Avenue,-29.9085808,31.0243855
45471592,Byrne Court,-29.7520896,31.049153
42644342,Byrne Crescent,-29.863773,30.9002112
176939120,Byrne Street,-28.7445447,31.8879552
89505360,Byrnewood Road,-29.5292172,30.2479671
41571203,Byron Place,-29.845838,30.9332331
44359280,Byter Place,-29.7662074,30.9826904
44470256,Byways Road,-30.0929445,30.8603643
44651701,C. Khawula Road,-29.8567931,30.7667955
54793925,C.B. Downes Road,-29.6446293,30.4123769
176324374,C.C. Nel Place,-30.5426055,29.4155228
176304934,C.G. De Bruin Road,-30.5407335,29.4285935
806382657,Cabana Beach Road,-29.7238296,31.0873237
114201076,Cabana Crescent,-27.7665211,29.920122
43752168,Cabanga Walk,-29.7672954,30.9119381
47998394,Cabangile Road,-29.8268482,30.627646
39739647,Cabazini Street,-29.854523,30.9606246
45445820,Cabbage Street,-29.6717331,31.0534898
549155314,Cabbage Tree,-29.5683787,30.3493668
42897211,Caber Road,-29.843882,30.8671423
58516196,Cabin Lane,-29.7657756,30.8824704
107966763,Cabin Road,-30.4932212,30.6298486
48610781,Cablan Place,-29.802785,31.0290032
193672298,Cabstar Terrace,-29.5524578,30.4197546
94084513,Cactus Avenue,-27.7178012,29.9365195
117071724,Cactus Drive,-28.7621714,31.9011237
38160304,Cactus Lane,-29.82641,30.9841607
95560206,Cactus Road,-29.5506872,30.3893725
193666058,Cadillac Road,-29.5549016,30.4357499
48610780,Cadiz Close,-29.8016172,31.0259182
45095166,Cadley Close,-29.7933302,30.9862316
121762533,Cadmoor Road,-29.7668077,30.744977
48611081,Cadogan Drive,-29.7771634,31.0391929
48611105,Cadogan Place,-29.781341,31.0380229
41571193,Caefron Avenue,-29.8322222,30.9180949
147537672,Caine Road,-30.3184646,30.7344753
45242278,Cairn Garoch Road,-29.9320053,31.0064592
45882444,Cairnbrook Place,-29.6868585,30.9964799
45884407,Cairngrove Place,-29.695482,31.032249
45884359,Cairnpark Close,-29.6706809,31.0179306
45884495,Cairnwood Place,-29.6825104,31.0290595
48667091,Caister Crescent,-29.8437451,31.000879
171708979,Caister Street,-28.0115505,30.053038
89068577,Caithness Terrace,-29.6144257,30.3945212
37959852,Calais Road,-29.8688457,30.9977308
198063464,Calamus Post Road,-28.7249158,32.0428286
118665448,Calcutta Road,-29.5901023,30.3899319
88425945,Calcutta Street,-28.5801846,29.7840505
87699504,Caldecot Place,-29.5699484,30.3371567
459464891,Caldene Close,-28.5310254,29.7834797
88390526,Caldene Drive,-28.532271,29.7831309
38178394,Calder Road,-29.8451265,30.9875084
167561815,Caldicott Place,-30.70803,30.4708123
48667155,Caldwell Road,-29.8423738,31.0062817
44370557,Caledonian Place,-29.8972942,30.9636264
45094390,Calendula Avenue,-30.2019863,30.7531034
43887051,Calendula Crescent,-29.7578761,30.997378
39724184,Calgary Grove,-29.8446316,30.9722889
45082617,Calicut Place,-29.9657912,30.9792824
58516404,California Drive,-29.7661393,30.8714263
41571342,Callander Road,-29.8054067,30.9196763
48667430,Callender Road,-29.8248112,31.0209222
44121274,Callie Road,-29.7962497,30.8753167
45880899,Calshot Crescent,-29.7154093,31.0153694
118719051,Calton Crescent,-29.6416069,30.3843876
44215952,Caluza Grove,-29.959365,30.894975
108916328,Caluza Road,-29.6120158,30.2823893
98645154,Calvary Place,-29.589647,30.4366632
44102813,Calvin Ngongoma Place,-29.8740213,30.8335691
430746393,Calypso Drive,-31.0761851,30.1981843
432560136,Calypso Road,-30.1163847,30.8444679
58515977,Cam Close,-29.7553412,30.8130353
666786492,Cambell Avenue,-31.0014626,30.2650186
754991928,Camberwell,-29.7381898,31.054913
45094541,Camborne Road,-30.2140866,30.7958317
58516448,Cambrian Place,-29.8009585,30.8482519
38233709,Cambridge Avenue,-29.879221,30.9916373
48610620,Cambridge Drive,-29.7953961,31.0344671
42897503,Cambridge Place,-29.8316035,30.887329
118814373,Cambridge Road,-29.6086555,30.3420523
48396184,Cambridge Street,-29.6643467,31.0393839
48782485,Camden Avenue,-29.8567257,30.9961195
58516259,Camel Lane,-29.7643535,30.8828822
291786465,Camel Route,-29.004201,29.1871113
44013080,Camelfoot Place,-29.5692146,31.1236057
852654442,Camelfoot Road,-29.5676759,30.3023282
48403288,Camelia Avenue,-29.6423113,31.0190383
45668869,Camelia End,-29.6598238,31.0135567
45094611,Camelia Place,-30.2096878,30.7692232
118941084,Camelia Road,-29.5748961,30.3923914
48611249,Camelia Street,-29.7568268,31.0434101
46703208,Camella Place,-29.5071453,30.2226618
94349660,Camellia Lane,-28.5934826,29.8104954
44099289,Camellia Place,-29.8820235,30.8091107
120073424,Camellia Street,-29.0061207,29.854104
43672424,Camelot Place,-29.9238965,30.9153462
44470260,Camelsfoot Road,-30.067052,30.8647014
45668861,Camelthorn Place,-29.6609565,31.0086861
43910479,Cameni Road,-29.7549302,30.9847987
182426912,Cameron,-29.2046589,29.9902062
89233412,Cameron Crescent,-29.5848421,30.4080809
42897204,Cameron Road,-29.8449231,30.8684876
43672203,Camillus Avenue,-29.9106922,30.8769606
98633408,Camoustie Road,-29.5536428,30.3579822
59595588,Camp Lane,-30.7114047,30.4722273
19528476,Camp Road,-29.7919924,30.8019539
48666944,Campbell Avenue,-29.8387103,31.0197529
42644349,Campbell Crescent,-29.8697016,30.8836144
45445591,Campbell Drive,-29.7145749,31.0855907
1427779439,Campbell House Road,-29.8665494,30.9834874
94084543,Campbell Place,-27.7277189,29.9405055
24822153,Campbell Road,-29.7982827,30.8686039
108260871,Campbell Street,-29.873514,30.2672124
45882831,Campbrook Close,-29.6823509,31.0018
43671905,Camper Drive,-29.9304577,30.9265529
48573105,Camperdown Road,-29.8694204,31.0464409
814126756,Campers Road,-30.7818097,30.4257452
45882631,Camphaven Road,-29.6903799,31.0182107
44358964,Camphill Close,-29.7834597,30.9549401
45668880,Camphor Close,-29.6555267,31.01227
94349657,Camphor Crescent,-28.5947214,29.812305
99052574,Camphor Road,-29.5774405,30.3869907
42644347,Camphorwood Road,-29.869464,30.8911161
43887112,Campile Crescent,-29.7561428,31.0086077
50733598,Camwood Drive,-29.5544457,31.1983249
37959858,Canada Road,-29.865172,31.0054666
58740226,Canal Drive,-29.8332547,30.9303677
44013079,Canary Crescent,-29.581297,31.0941816
45668904,Canary Link,-29.646481,31.0236283
94343979,Canary Road,-28.7510213,29.8380356
43672670,Canary Street,-29.9006403,30.9109601
44460987,Canasa Lane,-30.006534,30.8842576
48610864,Canberra Avenue,-29.7854792,31.0233887
41571109,Canberra Place,-29.8244819,30.9246849
37959853,Canberra Road,-29.8671058,31.0032869
45884411,Canbury Circle,-29.7018422,31.0313665
855390458,Cancer Road,-28.5330837,29.8093594
135762385,Cancer Street,-29.3392297,31.2682647
187020061,Candela Drive,-27.837972,29.9987267
39724426,Candella Road,-29.8414909,30.9644876
48396156,Candis Road,-29.6713939,31.032159
48408139,Candleglow Place,-29.6425581,31.1309917
706488841,Candlewood Lane,-29.8259581,30.9617438
436615439,Candlewood Road,-29.6150309,30.446132
38139079,Candover Road,-29.8197761,30.9837101
118924987,Candy Circle,-29.5085433,30.2250845
474913974,Candy Place,-28.0243583,30.0578244
48611273,Candytuft Grove,-29.7554341,31.0352618
43887141,Cane Crescent,-29.7479295,31.0062178
44012944,Cane Growers Road,-29.5752136,31.1065962
698115234,Cane Ridge,-30.1150996,30.8435816
59595581,Cane Road,-30.7125325,30.4674547
44470274,Cane Way,-30.0876706,30.8440342
25406800,Canegate Road,-29.7291814,31.0650274
45881211,Canehaven Drive,-29.6865986,31.0028181
45881191,Caneside Drive,-29.6848187,31.0085732
43672668,Canna Avenue,-29.8978594,30.8988326
44099613,Canna Crescent,-29.9104604,30.8370388
38178351,Canna Place,-29.8376981,30.9874258
118987355,Canna Road,-29.6445842,30.4195467
38178352,Cannon Avenue,-29.8374026,30.9886958
87265700,Cannon Road,-28.5600178,29.7712074
120073413,Canon Rogers,-29.011502,29.8638879
48667106,Canongate Road,-29.8558923,31.0064479
98645162,Canter Close,-29.5909095,30.4327966
416308786,Canterbury,-29.7735255,30.7888517
198023236,Canterbury Bell Street,-28.7427138,32.0603637
45445561,Canterbury Crescent,-29.7259531,31.074971
